[
  {
    "name": "Dolnośląski Urząd Skarbowy we Wrocławiu[0271]",
    "url": "https://www.e-pity.pl/lista-urzedow-skarbowych/dolnoslaski-urzad-skarbowy-we-wroclawiu-0271",
    "content": "ul. Żmigrodzka141, 51-130 Wrocław",
    "lat": 51.1480757,
    "lon": 17.0308388
  },
  {
    "name": "Drugi Mazowiecki Urząd Skarbowy w Warszawie[1472]",
    "url": "https://www.e-pity.pl/lista-urzedow-skarbowych/drugi-mazowiecki-urzad-skarbowy-w-warszawie-1472",
    "content": "ul. Stawki 2, 00-193 Warszawa",
    "lat": 52.253843,
    "lon": 20.996498
  },
  {
    "name": "Drugi Urząd Skarbowy Kraków[1228]",
    "url": "https://www.e-pity.pl/lista-urzedow-skarbowych/drugi-urzad-skarbowy-krakow-1228",
    "content": "ul. Krowoderskich Zuchów 2, 31-272 Kraków",
    "lat": 50.0847527,
    "lon": 19.9309327
  },
  {
    "name": "Drugi Urząd Skarbowy Warszawa-Śródmieście[1436]",
    "url": "https://www.e-pity.pl/lista-urzedow-skarbowych/drugi-urzad-skarbowy-warszawa-srodmiescie-1436",
    "content": "ul. Jagiellońska 15, 03-719 Warszawa",
    "lat": 52.2513652,
    "lon": 21.0348588
  },
  {
    "name": "Drugi Urząd Skarbowy w Białymstoku[2004]",
    "url": "https://www.e-pity.pl/lista-urzedow-skarbowych/drugi-urzad-skarbowy-w-bialymstoku-2004",
    "content": "ul. Plażowa 17, 15-502 Białystok",
    "lat": 53.1261052,
    "lon": 23.2191432
  },
  {
    "name": "Drugi Urząd Skarbowy w Bielsku-Białej[2404]",
    "url": "https://www.e-pity.pl/lista-urzedow-skarbowych/drugi-urzad-skarbowy-w-bielsku-bialej-2404",
    "content": "ul. Gen. Stanisława Maczka 73, 43-300 Bielsko-Biała",
    "lat": 49.7931422,
    "lon": 19.0595114
  },
  {
    "name": "Drugi Urząd Skarbowy w Bydgoszczy[0405]",
    "url": "https://www.e-pity.pl/lista-urzedow-skarbowych/drugi-urzad-skarbowy-w-bydgoszczy-0405",
    "content": "ul. Wojska Polskiego 20B, 85-822 Bydgoszcz",
    "lat": 53.1070339,
    "lon": 18.043411
  },
  {
    "name": "Drugi Urząd Skarbowy w Częstochowie[2410]",
    "url": "https://www.e-pity.pl/lista-urzedow-skarbowych/drugi-urzad-skarbowy-w-czestochowie-2410",
    "content": "ul. Tkacka 3, 42-200 Częstochowa",
    "lat": 50.8051424,
    "lon": 19.1378132
  },
  {
    "name": "Drugi Urząd Skarbowy w Gdańsku[2206]",
    "url": "https://www.e-pity.pl/lista-urzedow-skarbowych/drugi-urzad-skarbowy-w-gdansku-2206",
    "content": "ul. Kołobrzeska 43, 80-391 Gdańsk",
    "lat": 54.4041821,
    "lon": 18.5898981
  },
  {
    "name": "Drugi Urząd Skarbowy w Gdyni[2209]",
    "url": "https://www.e-pity.pl/lista-urzedow-skarbowych/drugi-urzad-skarbowy-w-gdyni-2209",
    "content": "ul. Hutnicza 25, 81-061 Gdynia",
    "lat": 54.54667449999999,
    "lon": 18.4724407
  },
  {
    "name": "Drugi Urząd Skarbowy w Gliwicach[2413]",
    "url": "https://www.e-pity.pl/lista-urzedow-skarbowych/drugi-urzad-skarbowy-w-gliwicach-2413",
    "content": "ul. Młodego Hutnika 2, 44-100 Gliwice",
    "lat": 50.29730929999999,
    "lon": 18.6978324
  },
  {
    "name": "Drugi Urząd Skarbowy w Kaliszu[3008]",
    "url": "https://www.e-pity.pl/lista-urzedow-skarbowych/drugi-urzad-skarbowy-w-kaliszu-3008",
    "content": "ul. Targowa 1, 62-800 Kalisz",
    "lat": 51.7628645,
    "lon": 18.0871794
  },
  {
    "name": "Drugi Urząd Skarbowy w Katowicach[2417]",
    "url": "https://www.e-pity.pl/lista-urzedow-skarbowych/drugi-urzad-skarbowy-w-katowicach-2417",
    "content": "ul. Ignacego Paderewskiego 32B, 40-282 Katowice",
    "lat": 50.25373399999999,
    "lon": 19.0371981
  },
  {
    "name": "Drugi Urząd Skarbowy w Kielcach[2605]",
    "url": "https://www.e-pity.pl/lista-urzedow-skarbowych/drugi-urzad-skarbowy-w-kielcach-2605",
    "content": "ul. Częstochowska 20, 25-647 Kielce",
    "lat": 50.88857950000001,
    "lon": 20.6060443
  },
  {
    "name": "Drugi Urząd Skarbowy w Koszalinie[3211]",
    "url": "https://www.e-pity.pl/lista-urzedow-skarbowych/drugi-urzad-skarbowy-w-koszalinie-3211",
    "content": "ul. Stanisława Moniuszki 15, 75-549 Koszalin",
    "lat": 54.1925695,
    "lon": 16.2051838
  },
  {
    "name": "Drugi Urząd Skarbowy w Lublinie[0611]",
    "url": "https://www.e-pity.pl/lista-urzedow-skarbowych/drugi-urzad-skarbowy-w-lublinie-0611",
    "content": "ul. Tadeusza Szeligowskiego 24, 20-883 Lublin",
    "lat": 51.26372,
    "lon": 22.55647
  },
  {
    "name": "Drugi Urząd Skarbowy w Opolu[1610]",
    "url": "https://www.e-pity.pl/lista-urzedow-skarbowych/drugi-urzad-skarbowy-w-opolu-1610",
    "content": "ul. Cementowa 6, 45-358 Opole",
    "lat": 50.663536,
    "lon": 17.9437027
  },
  {
    "name": "Drugi Urząd Skarbowy w Radomiu[1425]",
    "url": "https://www.e-pity.pl/lista-urzedow-skarbowych/drugi-urzad-skarbowy-w-radomiu-1425",
    "content": "ul. Toruńska 3, 26-600 Radom",
    "lat": 51.37970290000001,
    "lon": 21.1244921
  },
  {
    "name": "Drugi Urząd Skarbowy w Rzeszowie[1822]",
    "url": "https://www.e-pity.pl/lista-urzedow-skarbowych/drugi-urzad-skarbowy-w-rzeszowie-1822",
    "content": "ul. Lucjana Siemieńskiego 18, 35-234 Rzeszów",
    "lat": 50.0499625,
    "lon": 22.0116234
  },
  {
    "name": "Drugi Urząd Skarbowy w Szczecinie[3216]",
    "url": "https://www.e-pity.pl/lista-urzedow-skarbowych/drugi-urzad-skarbowy-w-szczecinie-3216",
    "content": "ul. Wacława Felczaka19, 71-417 Szczecin",
    "lat": 53.4389364,
    "lon": 14.546577
  },
  {
    "name": "Drugi Urząd Skarbowy w Tarnowie[1224]",
    "url": "https://www.e-pity.pl/lista-urzedow-skarbowych/drugi-urzad-skarbowy-w-tarnowie-1224",
    "content": "al. Solidarności 5-9B, 33-100 Tarnów",
    "lat": 50.0155683,
    "lon": 20.9791388
  },
  {
    "name": "Drugi Urząd Skarbowy w Toruniu[0417]",
    "url": "https://www.e-pity.pl/lista-urzedow-skarbowych/drugi-urzad-skarbowy-w-toruniu-0417",
    "content": "ul. Mazowiecka 63, 87-100 Toruń",
    "lat": 53.0430087,
    "lon": 18.6257287
  },
  {
    "name": "Drugi Urząd Skarbowy w Zielonej Górze[0809]",
    "url": "https://www.e-pity.pl/lista-urzedow-skarbowych/drugi-urzad-skarbowy-w-zielonej-gorze-0809",
    "content": "ul. Dr. Pieniężnego 24, 65-054 Zielona Góra",
    "lat": 51.9408387,
    "lon": 15.5080243
  },
  {
    "name": "Drugi Urząd Skarbowy Łódź-Bałuty[1009]",
    "url": "https://www.e-pity.pl/lista-urzedow-skarbowych/drugi-urzad-skarbowy-lodz-baluty-1009",
    "content": "ul. Św. Teresy od Dzieciątka Jezus 105, 91-222 Łódź",
    "lat": 51.8101965,
    "lon": 19.3892891
  },
  {
    "name": "Drugi Urząd Skarbowy Łódź-Górna[1011]",
    "url": "https://www.e-pity.pl/lista-urzedow-skarbowych/drugi-urzad-skarbowy-lodz-gorna-1011",
    "content": "ul. Gen. Walerego Wróblewskiego10A, 93-578 Łódź",
    "lat": 51.7439135,
    "lon": 19.4542357
  },
  {
    "name": "Drugi Wielkopolski Urząd Skarbowy w Kaliszu[3072]",
    "url": "https://www.e-pity.pl/lista-urzedow-skarbowych/drugi-wielkopolski-urzad-skarbowy-w-kaliszu-3072",
    "content": "ul. Fabryczna1A, 62-800 Kalisz",
    "lat": 51.76727990000001,
    "lon": 18.0853462
  },
  {
    "name": "Drugi Śląski Urząd Skarbowy w Bielsku-Białej[2472]",
    "url": "https://www.e-pity.pl/lista-urzedow-skarbowych/drugi-slaski-urzad-skarbowy-w-bielsku-bialej-2472",
    "content": "ul. Warszawska 45, 43-300 Bielsko-Biała",
    "lat": 49.8338968,
    "lon": 19.0414372
  },
  {
    "name": "Kujawsko-Pomorski Urząd Skarbowy w Bydgoszczy[0471]",
    "url": "https://www.e-pity.pl/lista-urzedow-skarbowych/kujawsko-pomorski-urzad-skarbowy-w-bydgoszczy-0471",
    "content": "ul. Grunwaldzka 50, 85-236 Bydgoszcz",
    "lat": 53.1291884,
    "lon": 17.9811383
  },
  {
    "name": "Lubelski Urząd Skarbowy w Lublinie[0671]",
    "url": "https://www.e-pity.pl/lista-urzedow-skarbowych/lubelski-urzad-skarbowy-w-lublinie-0671",
    "content": "ul. Tomasza Zana38, 20-601 Lublin",
    "lat": 51.234952,
    "lon": 22.539614
  },
  {
    "name": "Lubuski Urząd Skarbowy w Zielonej Górze[0871]",
    "url": "https://www.e-pity.pl/lista-urzedow-skarbowych/lubuski-urzad-skarbowy-w-zielonej-gorze-0871",
    "content": "ul. Dr. Pieniężnego 24, 65-054 Zielona Góra",
    "lat": 51.9408387,
    "lon": 15.5080243
  },
  {
    "name": "Małopolski Urząd Skarbowy w Krakowie[1271]",
    "url": "https://www.e-pity.pl/lista-urzedow-skarbowych/malopolski-urzad-skarbowy-w-krakowie-1271",
    "content": "os. Bohaterów Września 80, 31-621 Kraków",
    "lat": 50.1045393,
    "lon": 20.0116249
  },
  {
    "name": "Opolski Urząd Skarbowy w Opolu[1671]",
    "url": "https://www.e-pity.pl/lista-urzedow-skarbowych/opolski-urzad-skarbowy-w-opolu-1671",
    "content": "ul. Tadeusza Rejtana 3A, 45-331 Opole",
    "lat": 50.6667812,
    "lon": 17.9503028
  },
  {
    "name": "Pierwszy Mazowiecki Urząd Skarbowy w Warszawie[1471]",
    "url": "https://www.e-pity.pl/lista-urzedow-skarbowych/pierwszy-mazowiecki-urzad-skarbowy-w-warszawie-1471",
    "content": "ul. Alojzego Felińskiego 2A, 01-513 Warszawa",
    "lat": 52.2597858,
    "lon": 20.9901446
  },
  {
    "name": "Pierwszy Urząd Skarbowy Warszawa-Śródmieście[1435]",
    "url": "https://www.e-pity.pl/lista-urzedow-skarbowych/pierwszy-urzad-skarbowy-warszawa-srodmiescie-1435",
    "content": "ul. Williama Lindleya 14, 02-013 Warszawa",
    "lat": 52.22562860000001,
    "lon": 20.9970169
  },
  {
    "name": "Pierwszy Urząd Skarbowy w Białymstoku[2003]",
    "url": "https://www.e-pity.pl/lista-urzedow-skarbowych/pierwszy-urzad-skarbowy-w-bialymstoku-2003",
    "content": "ul. Świętojańska 13, 15-219 Białystok",
    "lat": 53.12772760000001,
    "lon": 23.1733731
  },
  {
    "name": "Pierwszy Urząd Skarbowy w Bielsku-Białej[2403]",
    "url": "https://www.e-pity.pl/lista-urzedow-skarbowych/pierwszy-urzad-skarbowy-w-bielsku-bialej-2403",
    "content": "ul. Teodora Sixta 17, 43-300 Bielsko-Biała",
    "lat": 49.8270476,
    "lon": 19.042101
  },
  {
    "name": "Pierwszy Urząd Skarbowy w Bydgoszczy[0404]",
    "url": "https://www.e-pity.pl/lista-urzedow-skarbowych/pierwszy-urzad-skarbowy-w-bydgoszczy-0404",
    "content": "ul. Fordońska 77, 85-950 Bydgoszcz",
    "lat": 53.12100299999999,
    "lon": 18.0524776
  },
  {
    "name": "Pierwszy Urząd Skarbowy w Częstochowie[2409]",
    "url": "https://www.e-pity.pl/lista-urzedow-skarbowych/pierwszy-urzad-skarbowy-w-czestochowie-2409",
    "content": "ul. Filomatów 18/20, 42-217 Częstochowa",
    "lat": 50.79866269999999,
    "lon": 19.1200341
  },
  {
    "name": "Pierwszy Urząd Skarbowy w Gdańsku[2205]",
    "url": "https://www.e-pity.pl/lista-urzedow-skarbowych/pierwszy-urzad-skarbowy-w-gdansku-2205",
    "content": "ul. Rzeźnicka 54/56, 80-822 Gdańsk",
    "lat": 54.3436514,
    "lon": 18.6466637
  },
  {
    "name": "Pierwszy Urząd Skarbowy w Gdyni[2208]",
    "url": "https://www.e-pity.pl/lista-urzedow-skarbowych/pierwszy-urzad-skarbowy-w-gdyni-2208",
    "content": "ul. Władysława IV 2/4, 81-353 Gdynia",
    "lat": 54.5228557,
    "lon": 18.538258
  },
  {
    "name": "Pierwszy Urząd Skarbowy w Gliwicach[2412]",
    "url": "https://www.e-pity.pl/lista-urzedow-skarbowych/pierwszy-urzad-skarbowy-w-gliwicach-2412",
    "content": "ul. Góry Chełmskiej 15, 44-100 Gliwice",
    "lat": 50.300326,
    "lon": 18.6520617
  },
  {
    "name": "Pierwszy Urząd Skarbowy w Kaliszu[3007]",
    "url": "https://www.e-pity.pl/lista-urzedow-skarbowych/pierwszy-urzad-skarbowy-w-kaliszu-3007",
    "content": "ul. Wrocławska 12, 62-800 Kalisz",
    "lat": 51.7425435,
    "lon": 18.0640124
  },
  {
    "name": "Pierwszy Urząd Skarbowy w Katowicach[2416]",
    "url": "https://www.e-pity.pl/lista-urzedow-skarbowych/pierwszy-urzad-skarbowy-w-katowicach-2416",
    "content": "ul. Żwirki i Wigury 17, 40-063 Katowice",
    "lat": 50.2545295,
    "lon": 19.0136325
  },
  {
    "name": "Pierwszy Urząd Skarbowy w Kielcach[2604]",
    "url": "https://www.e-pity.pl/lista-urzedow-skarbowych/pierwszy-urzad-skarbowy-w-kielcach-2604",
    "content": "ul. Wróbla 17, 25-661 Kielce",
    "lat": 50.8918149,
    "lon": 20.6146951
  },
  {
    "name": "Pierwszy Urząd Skarbowy w Koszalinie[3210]",
    "url": "https://www.e-pity.pl/lista-urzedow-skarbowych/pierwszy-urzad-skarbowy-w-koszalinie-3210",
    "content": "ul. Przemysłowa 3, 75-216 Koszalin",
    "lat": 54.2020085,
    "lon": 16.1582768
  },
  {
    "name": "Pierwszy Urząd Skarbowy w Krakowie[1207]",
    "url": "https://www.e-pity.pl/lista-urzedow-skarbowych/pierwszy-urzad-skarbowy-w-krakowie-1207",
    "content": "ul. Rzemieślnicza 20, 30-363 Kraków",
    "lat": 50.0332178,
    "lon": 19.931869
  },
  {
    "name": "Pierwszy Urząd Skarbowy w Lublinie[0610]",
    "url": "https://www.e-pity.pl/lista-urzedow-skarbowych/pierwszy-urzad-skarbowy-w-lublinie-0610",
    "content": "ul. Sądowa 5, 20-027 Lublin",
    "lat": 51.2464284,
    "lon": 22.5526181
  },
  {
    "name": "Pierwszy Urząd Skarbowy w Opolu[1609]",
    "url": "https://www.e-pity.pl/lista-urzedow-skarbowych/pierwszy-urzad-skarbowy-w-opolu-1609",
    "content": "ul. Tadeusza Rejtana 3B, 45-331 Opole",
    "lat": 50.6667812,
    "lon": 17.9503028
  },
  {
    "name": "Pierwszy Urząd Skarbowy w Poznaniu[3023]",
    "url": "https://www.e-pity.pl/lista-urzedow-skarbowych/pierwszy-urzad-skarbowy-w-poznaniu-3023",
    "content": "ul. Dolna Wilda 80, 61-501 Poznań",
    "lat": 52.3883099,
    "lon": 16.9225712
  },
  {
    "name": "Pierwszy Urząd Skarbowy w Radomiu[1424]",
    "url": "https://www.e-pity.pl/lista-urzedow-skarbowych/pierwszy-urzad-skarbowy-w-radomiu-1424",
    "content": "ul. Stanisława Zbrowskiego 106, 26-615 Radom",
    "lat": 51.4135771,
    "lon": 21.1768577
  },
  {
    "name": "Pierwszy Urząd Skarbowy w Rzeszowie[1816]",
    "url": "https://www.e-pity.pl/lista-urzedow-skarbowych/pierwszy-urzad-skarbowy-w-rzeszowie-1816",
    "content": "ul. Podwisłocze 42, 35-309 Rzeszów",
    "lat": 50.0281538,
    "lon": 22.0083779
  },
  {
    "name": "Pierwszy Urząd Skarbowy w Szczecinie[3215]",
    "url": "https://www.e-pity.pl/lista-urzedow-skarbowych/pierwszy-urzad-skarbowy-w-szczecinie-3215",
    "content": "ul. Michała Drzymały 5, 70-217 Szczecin",
    "lat": 53.4217758,
    "lon": 14.546698
  },
  {
    "name": "Pierwszy Urząd Skarbowy w Tarnowie[1223]",
    "url": "https://www.e-pity.pl/lista-urzedow-skarbowych/pierwszy-urzad-skarbowy-w-tarnowie-1223",
    "content": "ul. Lwowska 72-96A, 33-100 Tarnów",
    "lat": 50.01483580000001,
    "lon": 21.004696
  },
  {
    "name": "Pierwszy Urząd Skarbowy w Toruniu[0416]",
    "url": "https://www.e-pity.pl/lista-urzedow-skarbowych/pierwszy-urzad-skarbowy-w-toruniu-0416",
    "content": "ul. Szosa Chełmińska 34/36, 87-100 Toruń",
    "lat": 53.0181531,
    "lon": 18.6008043
  },
  {
    "name": "Pierwszy Urząd Skarbowy w Zielonej Górze[0808]",
    "url": "https://www.e-pity.pl/lista-urzedow-skarbowych/pierwszy-urzad-skarbowy-w-zielonej-gorze-0808",
    "content": "ul. Dr. Pieniężnego 24, 65-054 Zielona Góra",
    "lat": 51.9408387,
    "lon": 15.5080243
  },
  {
    "name": "Pierwszy Urząd Skarbowy we Wrocławiu[0229]",
    "url": "https://www.e-pity.pl/lista-urzedow-skarbowych/pierwszy-urzad-skarbowy-we-wroclawiu-0229",
    "content": "ul. Ks. Czesława Klimasa 34, 50-515 Wrocław",
    "lat": 51.0805803,
    "lon": 17.0615496
  },
  {
    "name": "Pierwszy Urząd Skarbowy Łódź-Bałuty[1008]",
    "url": "https://www.e-pity.pl/lista-urzedow-skarbowych/pierwszy-urzad-skarbowy-lodz-baluty-1008",
    "content": "ul. Zachodnia 47, 91-066 Łódź",
    "lat": 51.779272,
    "lon": 19.451276
  },
  {
    "name": "Pierwszy Urząd Skarbowy Łódź-Górna[1010]",
    "url": "https://www.e-pity.pl/lista-urzedow-skarbowych/pierwszy-urzad-skarbowy-lodz-gorna-1010",
    "content": "ul. Gen. Walerego Wróblewskiego 10, 93-578 Łódź",
    "lat": 51.7434038,
    "lon": 19.4546769
  },
  {
    "name": "Pierwszy Wielkopolski Urząd Skarbowy w Poznaniu[3071]",
    "url": "https://www.e-pity.pl/lista-urzedow-skarbowych/pierwszy-wielkopolski-urzad-skarbowy-w-poznaniu-3071",
    "content": "pl. Cyryla Ratajskiego 5, 61-726 Poznań",
    "lat": 52.4102173,
    "lon": 16.9239252
  },
  {
    "name": "Pierwszy Śląski Urząd Skarbowy w Sosnowcu[2471]",
    "url": "https://www.e-pity.pl/lista-urzedow-skarbowych/pierwszy-slaski-urzad-skarbowy-w-sosnowcu-2471",
    "content": "ul. Braci Mieroszewskich 97, 41-219 Sosnowiec",
    "lat": 50.31508849999999,
    "lon": 19.1955344
  },
  {
    "name": "Podkarpacki Urząd Skarbowy w Rzeszowie[1871]",
    "url": "https://www.e-pity.pl/lista-urzedow-skarbowych/podkarpacki-urzad-skarbowy-w-rzeszowie-1871",
    "content": "ul. Geodetów 1, 35-959 Rzeszów",
    "lat": 50.0228119,
    "lon": 22.0192071
  },
  {
    "name": "Podlaski Urząd Skarbowy w Białymstoku[2071]",
    "url": "https://www.e-pity.pl/lista-urzedow-skarbowych/podlaski-urzad-skarbowy-w-bialymstoku-2071",
    "content": "ul. Młynowa 21A, 15-404 Białystok",
    "lat": 53.12692639999999,
    "lon": 23.1469416
  },
  {
    "name": "Pomorski Urząd Skarbowy w Gdańsku[2271]",
    "url": "https://www.e-pity.pl/lista-urzedow-skarbowych/pomorski-urzad-skarbowy-w-gdansku-2271",
    "content": "ul. Żytnia 4/6, 80-749 Gdańsk",
    "lat": 54.3464378,
    "lon": 18.6579463
  },
  {
    "name": "Trzeci Mazowiecki Urząd Skarbowy w Radomiu[1473]",
    "url": "https://www.e-pity.pl/lista-urzedow-skarbowych/trzeci-mazowiecki-urzad-skarbowy-w-radomiu-1473",
    "content": "ul. Andrzeja Struga 26/28, 26-610 Radom",
    "lat": 51.4054966,
    "lon": 21.159851
  },
  {
    "name": "Trzeci Urząd Skarbowy Warszawa-Śródmieście[1449]",
    "url": "https://www.e-pity.pl/lista-urzedow-skarbowych/trzeci-urzad-skarbowy-warszawa-srodmiescie-1449",
    "content": "ul. Williama Lindleya 14, 02-013 Warszawa",
    "lat": 52.22562860000001,
    "lon": 20.9970169
  },
  {
    "name": "Trzeci Urząd Skarbowy w Bydgoszczy[0406]",
    "url": "https://www.e-pity.pl/lista-urzedow-skarbowych/trzeci-urzad-skarbowy-w-bydgoszczy-0406",
    "content": "ul. Tadeusza Rejtana 5, 85-032 Bydgoszcz",
    "lat": 53.131609,
    "lon": 17.991671
  },
  {
    "name": "Trzeci Urząd Skarbowy w Gdańsku[2207]",
    "url": "https://www.e-pity.pl/lista-urzedow-skarbowych/trzeci-urzad-skarbowy-w-gdansku-2207",
    "content": "ul. Żaglowa 2, 80-560 Gdańsk",
    "lat": 54.3864732,
    "lon": 18.6386406
  },
  {
    "name": "Trzeci Urząd Skarbowy w Lublinie[0612]",
    "url": "https://www.e-pity.pl/lista-urzedow-skarbowych/trzeci-urzad-skarbowy-w-lublinie-0612",
    "content": "ul. Prezydenta Gabriela Narutowicza 56, 20-016 Lublin",
    "lat": 51.24164529999999,
    "lon": 22.5563631
  },
  {
    "name": "Trzeci Urząd Skarbowy w Szczecinie[3217]",
    "url": "https://www.e-pity.pl/lista-urzedow-skarbowych/trzeci-urzad-skarbowy-w-szczecinie-3217",
    "content": "ul. Lucjana Rydla 65, 70-783 Szczecin",
    "lat": 53.38197109999999,
    "lon": 14.6575015
  },
  {
    "name": "Urząd Skarbowy Kraków-Krowodrza[1208]",
    "url": "https://www.e-pity.pl/lista-urzedow-skarbowych/urzad-skarbowy-krakow-krowodrza-1208",
    "content": "ul. Krowoderskich Zuchów 2, 31-272 Kraków",
    "lat": 50.0847527,
    "lon": 19.9309327
  },
  {
    "name": "Urząd Skarbowy Kraków-Nowa Huta[1209]",
    "url": "https://www.e-pity.pl/lista-urzedow-skarbowych/urzad-skarbowy-krakow-nowa-huta-1209",
    "content": "os. Bohaterów Września 80, 31-621 Kraków",
    "lat": 50.1045393,
    "lon": 20.0116249
  },
  {
    "name": "Urząd Skarbowy Kraków-Podgórze[1210]",
    "url": "https://www.e-pity.pl/lista-urzedow-skarbowych/urzad-skarbowy-krakow-podgorze-1210",
    "content": "ul. Wadowicka 10, 30-415 Kraków",
    "lat": 50.03164659999999,
    "lon": 19.9385451
  },
  {
    "name": "Urząd Skarbowy Kraków-Prądnik[1211]",
    "url": "https://www.e-pity.pl/lista-urzedow-skarbowych/urzad-skarbowy-krakow-pradnik-1211",
    "content": "ul. Krowoderskich Zuchów 2, 31-272 Kraków",
    "lat": 50.0847527,
    "lon": 19.9309327
  },
  {
    "name": "Urząd Skarbowy Kraków-Stare Miasto[1212]",
    "url": "https://www.e-pity.pl/lista-urzedow-skarbowych/urzad-skarbowy-krakow-stare-miasto-1212",
    "content": "ul. Grodzka 65, 31-001 Kraków",
    "lat": 50.055645,
    "lon": 19.938135
  },
  {
    "name": "Urząd Skarbowy Kraków-Śródmieście[1213]",
    "url": "https://www.e-pity.pl/lista-urzedow-skarbowych/urzad-skarbowy-krakow-srodmiescie-1213",
    "content": "ul. Krowoderskich Zuchów 2, 31-272 Kraków",
    "lat": 50.0847527,
    "lon": 19.9309327
  },
  {
    "name": "Urząd Skarbowy Poznań-Grunwald[3020]",
    "url": "https://www.e-pity.pl/lista-urzedow-skarbowych/urzad-skarbowy-poznan-grunwald-3020",
    "content": "ul. Mariana Smoluchowskiego 1, 60-179 Poznań",
    "lat": 52.3901177,
    "lon": 16.8520725
  },
  {
    "name": "Urząd Skarbowy Poznań-Jeżyce[3021]",
    "url": "https://www.e-pity.pl/lista-urzedow-skarbowych/urzad-skarbowy-poznan-jezyce-3021",
    "content": "ul. Strzelecka 2/6, 61-845 Poznań",
    "lat": 52.4047788,
    "lon": 16.9318313
  },
  {
    "name": "Urząd Skarbowy Poznań-Nowe Miasto[3022]",
    "url": "https://www.e-pity.pl/lista-urzedow-skarbowych/urzad-skarbowy-poznan-nowe-miasto-3022",
    "content": "ul. Chłapowskiego 17/18, 60-965 Poznań",
    "lat": 52.3878163,
    "lon": 16.9223751
  },
  {
    "name": "Urząd Skarbowy Poznań-Wilda[3026]",
    "url": "https://www.e-pity.pl/lista-urzedow-skarbowych/urzad-skarbowy-poznan-wilda-3026",
    "content": "ul. Dolna Wilda 80B, 61-501 Poznań",
    "lat": 52.3885794,
    "lon": 16.9203124
  },
  {
    "name": "Urząd Skarbowy Poznań-Winogrady[3025]",
    "url": "https://www.e-pity.pl/lista-urzedow-skarbowych/urzad-skarbowy-poznan-winogrady-3025",
    "content": "ul. Zygmunta Wojciechowskiego 3/5, 60-685 Poznań",
    "lat": 52.444119,
    "lon": 16.9127179
  },
  {
    "name": "Urząd Skarbowy Warszawa-Bemowo[1431]",
    "url": "https://www.e-pity.pl/lista-urzedow-skarbowych/urzad-skarbowy-warszawa-bemowo-1431",
    "content": "ul. Białobrzeska 53A, 02-325 Warszawa",
    "lat": 52.2196306,
    "lon": 20.9770405
  },
  {
    "name": "Urząd Skarbowy Warszawa-Bielany[1432]",
    "url": "https://www.e-pity.pl/lista-urzedow-skarbowych/urzad-skarbowy-warszawa-bielany-1432",
    "content": "ul. Skalbmierska 5, 01-844 Warszawa",
    "lat": 52.2801088,
    "lon": 20.9409795
  },
  {
    "name": "Urząd Skarbowy Warszawa-Mokotów[1433]",
    "url": "https://www.e-pity.pl/lista-urzedow-skarbowych/urzad-skarbowy-warszawa-mokotow-1433",
    "content": "ul. Postępu 16A, 02-676 Warszawa",
    "lat": 52.1806644,
    "lon": 20.9987472
  },
  {
    "name": "Urząd Skarbowy Warszawa-Praga[1434]",
    "url": "https://www.e-pity.pl/lista-urzedow-skarbowych/urzad-skarbowy-warszawa-praga-1434",
    "content": "ul. Jagiellońska 15, 03-719 Warszawa",
    "lat": 52.2513652,
    "lon": 21.0348588
  },
  {
    "name": "Urząd Skarbowy Warszawa-Targówek[1437]",
    "url": "https://www.e-pity.pl/lista-urzedow-skarbowych/urzad-skarbowy-warszawa-targowek-1437",
    "content": "ul. Dąbrowszczaków 14, 03-484 Warszawa",
    "lat": 52.2626782,
    "lon": 21.0299808
  },
  {
    "name": "Urząd Skarbowy Warszawa-Ursynów[1438]",
    "url": "https://www.e-pity.pl/lista-urzedow-skarbowych/urzad-skarbowy-warszawa-ursynow-1438",
    "content": "ul. Wynalazek 3, 02-677 Warszawa",
    "lat": 52.1794539,
    "lon": 20.9932977
  },
  {
    "name": "Urząd Skarbowy Warszawa-Wawer[1439]",
    "url": "https://www.e-pity.pl/lista-urzedow-skarbowych/urzad-skarbowy-warszawa-wawer-1439",
    "content": "ul. Ludwika Mycielskiego 21, 04-379 Warszawa",
    "lat": 52.2516066,
    "lon": 21.0819375
  },
  {
    "name": "Urząd Skarbowy Warszawa-Wola[1440]",
    "url": "https://www.e-pity.pl/lista-urzedow-skarbowych/urzad-skarbowy-warszawa-wola-1440",
    "content": "ul. Powstańców Śląskich 2D, 01-381 Warszawa",
    "lat": 52.2227626,
    "lon": 20.9182776
  },
  {
    "name": "Urząd Skarbowy Wrocław-Fabryczna[0224]",
    "url": "https://www.e-pity.pl/lista-urzedow-skarbowych/urzad-skarbowy-wroclaw-fabryczna-0224",
    "content": "ul. Ostrowskiego 5, 53-238 Wrocław",
    "lat": 51.0950644,
    "lon": 16.9768632
  },
  {
    "name": "Urząd Skarbowy Wrocław-Krzyki[0225]",
    "url": "https://www.e-pity.pl/lista-urzedow-skarbowych/urzad-skarbowy-wroclaw-krzyki-0225",
    "content": "ul. Sztabowa 100, 53-310 Wrocław",
    "lat": 51.0872087,
    "lon": 17.0236588
  },
  {
    "name": "Urząd Skarbowy Wrocław-Psie Pole[0226]",
    "url": "https://www.e-pity.pl/lista-urzedow-skarbowych/urzad-skarbowy-wroclaw-psie-pole-0226",
    "content": "ul. Trzebnicka 33, 50-231 Wrocław",
    "lat": 51.1274455,
    "lon": 17.0367922
  },
  {
    "name": "Urząd Skarbowy Wrocław-Stare Miasto[0227]",
    "url": "https://www.e-pity.pl/lista-urzedow-skarbowych/urzad-skarbowy-wroclaw-stare-miasto-0227",
    "content": "ul. Inowrocławska 4, 53-654 Wrocław",
    "lat": 51.114437,
    "lon": 17.0129414
  },
  {
    "name": "Urząd Skarbowy Wrocław-Śródmieście[0228]",
    "url": "https://www.e-pity.pl/lista-urzedow-skarbowych/urzad-skarbowy-wroclaw-srodmiescie-0228",
    "content": "ul. Marszałka Józefa Piłsudskiego27-29, 50-044 Wrocław",
    "lat": 51.1014436,
    "lon": 17.0290256
  },
  {
    "name": "Urząd Skarbowy w Aleksandrowie Kujawskim[0402]",
    "url": "https://www.e-pity.pl/lista-urzedow-skarbowych/urzad-skarbowy-w-aleksandrowie-kujawskim-0402",
    "content": "ul. Kościelna 18, 87-700 Aleksandrów Kujawski",
    "lat": 52.88092930000001,
    "lon": 18.692872
  },
  {
    "name": "Urząd Skarbowy w Augustowie[2002]",
    "url": "https://www.e-pity.pl/lista-urzedow-skarbowych/urzad-skarbowy-w-augustowie-2002",
    "content": "ul. Żabia 7, 16-300 Augustów",
    "lat": 53.8428883,
    "lon": 22.976356
  },
  {
    "name": "Urząd Skarbowy w Bartoszycach[2802]",
    "url": "https://www.e-pity.pl/lista-urzedow-skarbowych/urzad-skarbowy-w-bartoszycach-2802",
    "content": "ul. Bohaterów Warszawy5, 11-200 Bartoszyce",
    "lat": 54.249025,
    "lon": 20.81642
  },
  {
    "name": "Urząd Skarbowy w Bełchatowie[1002]",
    "url": "https://www.e-pity.pl/lista-urzedow-skarbowych/urzad-skarbowy-w-belchatowie-1002",
    "content": "ul. Józefa Piłsudskiego 18, 97-400 Bełchatów",
    "lat": 51.3693938,
    "lon": 19.3758406
  },
  {
    "name": "Urząd Skarbowy w Białej Podlaskiej[0602]",
    "url": "https://www.e-pity.pl/lista-urzedow-skarbowych/urzad-skarbowy-w-bialej-podlaskiej-0602",
    "content": "ul. Prosta 19, 21-500 Biała Podlaska",
    "lat": 52.0358021,
    "lon": 23.1217147
  },
  {
    "name": "Urząd Skarbowy w Białobrzegach[1402]",
    "url": "https://www.e-pity.pl/lista-urzedow-skarbowych/urzad-skarbowy-w-bialobrzegach-1402",
    "content": "ul. Władysława Reymonta 46, 26-800 Białobrzegi",
    "lat": 51.642591,
    "lon": 20.9511817
  },
  {
    "name": "Urząd Skarbowy w Białogardzie[3202]",
    "url": "https://www.e-pity.pl/lista-urzedow-skarbowych/urzad-skarbowy-w-bialogardzie-3202",
    "content": "ul. Adama Mickiewicza 3, 78-200 Białogard",
    "lat": 54.0101963,
    "lon": 15.9851798
  },
  {
    "name": "Urząd Skarbowy w Bielsku Podlaskim[2005]",
    "url": "https://www.e-pity.pl/lista-urzedow-skarbowych/urzad-skarbowy-w-bielsku-podlaskim-2005",
    "content": "ul. Adama Mickiewicza 33, 17-100 Bielsk Podlaski",
    "lat": 52.7684534,
    "lon": 23.1910802
  },
  {
    "name": "Urząd Skarbowy w Biłgoraju[0603]",
    "url": "https://www.e-pity.pl/lista-urzedow-skarbowych/urzad-skarbowy-w-bilgoraju-0603",
    "content": "ul. Tadeusza Kościuszki 78, 23-400 Biłgoraj",
    "lat": 50.5326044,
    "lon": 22.7178177
  },
  {
    "name": "Urząd Skarbowy w Bochni[1202]",
    "url": "https://www.e-pity.pl/lista-urzedow-skarbowych/urzad-skarbowy-w-bochni-1202",
    "content": "ul. Gołębia 3, 32-700 Bochnia",
    "lat": 49.9700783,
    "lon": 20.4270043
  },
  {
    "name": "Urząd Skarbowy w Bolesławcu[0202]",
    "url": "https://www.e-pity.pl/lista-urzedow-skarbowych/urzad-skarbowy-w-boleslawcu-0202",
    "content": "ul. Garncarska 10, 59-700 Bolesławiec",
    "lat": 51.2609728,
    "lon": 15.5597577
  },
  {
    "name": "Urząd Skarbowy w Braniewie[2803]",
    "url": "https://www.e-pity.pl/lista-urzedow-skarbowych/urzad-skarbowy-w-braniewie-2803",
    "content": "ul. Jana Matejki6, 14-500 Braniewo",
    "lat": 54.3815821,
    "lon": 19.8076476
  },
  {
    "name": "Urząd Skarbowy w Brodnicy[0403]",
    "url": "https://www.e-pity.pl/lista-urzedow-skarbowych/urzad-skarbowy-w-brodnicy-0403",
    "content": "ul. Gen. Władysława Sikorskiego 19, 87-300 Brodnica",
    "lat": 53.2704617,
    "lon": 19.4187555
  },
  {
    "name": "Urząd Skarbowy w Brzegu[1602]",
    "url": "https://www.e-pity.pl/lista-urzedow-skarbowych/urzad-skarbowy-w-brzegu-1602",
    "content": "ul. Składowa 2, 49-305 Brzeg",
    "lat": 50.8497366,
    "lon": 17.4766387
  },
  {
    "name": "Urząd Skarbowy w Brzesku[1203]",
    "url": "https://www.e-pity.pl/lista-urzedow-skarbowych/urzad-skarbowy-w-brzesku-1203",
    "content": "ul. Królowej Jadwigi 16, 32-800 Brzesko",
    "lat": 49.9739758,
    "lon": 20.6030767
  },
  {
    "name": "Urząd Skarbowy w Brzezinach[1003]",
    "url": "https://www.e-pity.pl/lista-urzedow-skarbowych/urzad-skarbowy-w-brzezinach-1003",
    "content": "ul. Henryka Sienkiewicza 16, 95-060 Brzeziny",
    "lat": 51.7995579,
    "lon": 19.7588441
  },
  {
    "name": "Urząd Skarbowy w Brzozowie[1802]",
    "url": "https://www.e-pity.pl/lista-urzedow-skarbowych/urzad-skarbowy-w-brzozowie-1802",
    "content": "ul. Kazimierzowska 1, 36-200 Brzozów",
    "lat": 49.697081,
    "lon": 22.0231441
  },
  {
    "name": "Urząd Skarbowy w Busku-Zdroju[2602]",
    "url": "https://www.e-pity.pl/lista-urzedow-skarbowych/urzad-skarbowy-w-busku-zdroju-2602",
    "content": "ul. Parkowa 17, 28-100 Busko-Zdrój",
    "lat": 50.4615212,
    "lon": 20.7254106
  },
  {
    "name": "Urząd Skarbowy w Bystrzycy Kłodzkiej[0203]",
    "url": "https://www.e-pity.pl/lista-urzedow-skarbowych/urzad-skarbowy-w-bystrzycy-klodzkiej-0203",
    "content": "ul. Adama Mickiewicza 5, 57-500 Bystrzyca Kłodzka",
    "lat": 50.3004436,
    "lon": 16.6467899
  },
  {
    "name": "Urząd Skarbowy w Bytomiu[2405]",
    "url": "https://www.e-pity.pl/lista-urzedow-skarbowych/urzad-skarbowy-w-bytomiu-2405",
    "content": "ul. Wrocławska 92, 41-902 Bytom",
    "lat": 50.3506563,
    "lon": 18.8941364
  },
  {
    "name": "Urząd Skarbowy w Bytowie[2202]",
    "url": "https://www.e-pity.pl/lista-urzedow-skarbowych/urzad-skarbowy-w-bytowie-2202",
    "content": "ul. 1 Maja 16, 77-100 Bytów",
    "lat": 54.1672789,
    "lon": 17.49629
  },
  {
    "name": "Urząd Skarbowy w Będzinie[2402]",
    "url": "https://www.e-pity.pl/lista-urzedow-skarbowych/urzad-skarbowy-w-bedzinie-2402",
    "content": "ul. Józefa Retingera1, 42-500 Będzin",
    "lat": 50.3255999,
    "lon": 19.1254121
  },
  {
    "name": "Urząd Skarbowy w Chełmie[0604]",
    "url": "https://www.e-pity.pl/lista-urzedow-skarbowych/urzad-skarbowy-w-chelmie-0604",
    "content": "ul. Obłońska 20A, 22-100 Chełm",
    "lat": 51.136438,
    "lon": 23.472674
  },
  {
    "name": "Urząd Skarbowy w Chełmnie[0407]",
    "url": "https://www.e-pity.pl/lista-urzedow-skarbowych/urzad-skarbowy-w-chelmnie-0407",
    "content": "ul. Grudziądzka 6, 86-200 Chełmno",
    "lat": 53.3493267,
    "lon": 18.4249671
  },
  {
    "name": "Urząd Skarbowy w Chodzieży[3037]",
    "url": "https://www.e-pity.pl/lista-urzedow-skarbowych/urzad-skarbowy-w-chodziezy-3037",
    "content": "ul. Ofiar Gór Morzewskich 1, 64-800 Chodzież",
    "lat": 52.999992,
    "lon": 16.91583
  },
  {
    "name": "Urząd Skarbowy w Chojnicach[2203]",
    "url": "https://www.e-pity.pl/lista-urzedow-skarbowych/urzad-skarbowy-w-chojnicach-2203",
    "content": "ul. Młyńska 22, 89-600 Chojnice",
    "lat": 53.6965021,
    "lon": 17.558957
  },
  {
    "name": "Urząd Skarbowy w Chorzowie[2406]",
    "url": "https://www.e-pity.pl/lista-urzedow-skarbowych/urzad-skarbowy-w-chorzowie-2406",
    "content": "ul. Armii Krajowej 5, 41-506 Chorzów",
    "lat": 50.2834581,
    "lon": 18.9369712
  },
  {
    "name": "Urząd Skarbowy w Choszcznie[3203]",
    "url": "https://www.e-pity.pl/lista-urzedow-skarbowych/urzad-skarbowy-w-choszcznie-3203",
    "content": "ul. Lipcowa16, 73-200 Choszczno",
    "lat": 53.16928,
    "lon": 15.41971
  },
  {
    "name": "Urząd Skarbowy w Chrzanowie[1204]",
    "url": "https://www.e-pity.pl/lista-urzedow-skarbowych/urzad-skarbowy-w-chrzanowie-1204",
    "content": "ul. Garncarska 9, 32-500 Chrzanów",
    "lat": 50.1430822,
    "lon": 19.4067774
  },
  {
    "name": "Urząd Skarbowy w Ciechanowie[1403]",
    "url": "https://www.e-pity.pl/lista-urzedow-skarbowych/urzad-skarbowy-w-ciechanowie-1403",
    "content": "ul. Warszawska 58, 06-400 Ciechanów",
    "lat": 52.877297,
    "lon": 20.617732
  },
  {
    "name": "Urząd Skarbowy w Cieszynie[2407]",
    "url": "https://www.e-pity.pl/lista-urzedow-skarbowych/urzad-skarbowy-w-cieszynie-2407",
    "content": "ul. Ignacego Kraszewskiego 4, 43-400 Cieszyn",
    "lat": 49.742138,
    "lon": 18.63337
  },
  {
    "name": "Urząd Skarbowy w Czarnkowie[3002]",
    "url": "https://www.e-pity.pl/lista-urzedow-skarbowych/urzad-skarbowy-w-czarnkowie-3002",
    "content": "ul. Wodna8, 64-700 Czarnków",
    "lat": 52.90528,
    "lon": 16.56567
  },
  {
    "name": "Urząd Skarbowy w Czechowicach-Dziedzicach[2408]",
    "url": "https://www.e-pity.pl/lista-urzedow-skarbowych/urzad-skarbowy-w-czechowicach-dziedzicach-2408",
    "content": "ul. Nad Białką 1A, 43-502 Czechowice-Dziedzice",
    "lat": 49.9318022,
    "lon": 19.0145017
  },
  {
    "name": "Urząd Skarbowy w Człuchowie[2204]",
    "url": "https://www.e-pity.pl/lista-urzedow-skarbowych/urzad-skarbowy-w-czluchowie-2204",
    "content": "ul. Jerzego z Dąbrowy 5E, 77-300 Człuchów",
    "lat": 53.67284309999999,
    "lon": 17.3582108
  },
  {
    "name": "Urząd Skarbowy w Drawsku Pomorskim[3204]",
    "url": "https://www.e-pity.pl/lista-urzedow-skarbowych/urzad-skarbowy-w-drawsku-pomorskim-3204",
    "content": "ul. Józefa Piłsudskiego 35-37, 78-500 Drawsko Pomorskie",
    "lat": 53.527306,
    "lon": 15.815555
  },
  {
    "name": "Urząd Skarbowy w Drezdenku[0812]",
    "url": "https://www.e-pity.pl/lista-urzedow-skarbowych/urzad-skarbowy-w-drezdenku-0812",
    "content": "ul. Pierwszej Brygady 21, 66-530 Drezdenko",
    "lat": 52.83219,
    "lon": 15.840075
  },
  {
    "name": "Urząd Skarbowy w Działdowie[2804]",
    "url": "https://www.e-pity.pl/lista-urzedow-skarbowych/urzad-skarbowy-w-dzialdowie-2804",
    "content": "ul. Marii Skłodowskiej-Curie35A, 13-200 Działdowo",
    "lat": 53.2336162,
    "lon": 20.1708724
  },
  {
    "name": "Urząd Skarbowy w Dzierżoniowie[0204]",
    "url": "https://www.e-pity.pl/lista-urzedow-skarbowych/urzad-skarbowy-w-dzierzoniowie-0204",
    "content": "ul. Pocztowa 14, 58-200 Dzierżoniów",
    "lat": 50.72782300000001,
    "lon": 16.646783
  },
  {
    "name": "Urząd Skarbowy w Dąbrowie Górniczej[2411]",
    "url": "https://www.e-pity.pl/lista-urzedow-skarbowych/urzad-skarbowy-w-dabrowie-gorniczej-2411",
    "content": "ul. Krasińskiego 33A, 41-300 Dąbrowa Górnicza",
    "lat": 50.3217584,
    "lon": 19.2087724
  },
  {
    "name": "Urząd Skarbowy w Dąbrowie Tarnowskiej[1205]",
    "url": "https://www.e-pity.pl/lista-urzedow-skarbowych/urzad-skarbowy-w-dabrowie-tarnowskiej-1205",
    "content": "ul. Berka Joselewicza 5, 33-200 Dąbrowa Tarnowska",
    "lat": 50.1763296,
    "lon": 20.9878473
  },
  {
    "name": "Urząd Skarbowy w Dębicy[1803]",
    "url": "https://www.e-pity.pl/lista-urzedow-skarbowych/urzad-skarbowy-w-debicy-1803",
    "content": "ul. Kolejowa 21, 39-200 Dębica",
    "lat": 50.0516888,
    "lon": 21.4067037
  },
  {
    "name": "Urząd Skarbowy w Elblągu[2805]",
    "url": "https://www.e-pity.pl/lista-urzedow-skarbowych/urzad-skarbowy-w-elblagu-2805",
    "content": "ul. Adama Mickiewicza43, 82-300 Elbląg",
    "lat": 54.1587808,
    "lon": 19.4175066
  },
  {
    "name": "Urząd Skarbowy w Ełku[2806]",
    "url": "https://www.e-pity.pl/lista-urzedow-skarbowych/urzad-skarbowy-w-elku-2806",
    "content": "ul. Wojska Polskiego67, 19-300 Ełk",
    "lat": 53.8179731,
    "lon": 22.3550217
  },
  {
    "name": "Urząd Skarbowy w Garwolinie[1404]",
    "url": "https://www.e-pity.pl/lista-urzedow-skarbowych/urzad-skarbowy-w-garwolinie-1404",
    "content": "ul. Senatorska 30, 08-400 Garwolin",
    "lat": 51.8960132,
    "lon": 21.6122082
  },
  {
    "name": "Urząd Skarbowy w Giżycku[2807]",
    "url": "https://www.e-pity.pl/lista-urzedow-skarbowych/urzad-skarbowy-w-gizycku-2807",
    "content": "ul. Tadeusza Kościuszki15, 11-500 Giżycko",
    "lat": 54.040707,
    "lon": 21.7719953
  },
  {
    "name": "Urząd Skarbowy w Gnieźnie[3003]",
    "url": "https://www.e-pity.pl/lista-urzedow-skarbowych/urzad-skarbowy-w-gnieznie-3003",
    "content": "ul. Spichrzowa 4, 62-200 Gniezno",
    "lat": 52.5560388,
    "lon": 17.6088361
  },
  {
    "name": "Urząd Skarbowy w Goleniowie[3205]",
    "url": "https://www.e-pity.pl/lista-urzedow-skarbowych/urzad-skarbowy-w-goleniowie-3205",
    "content": "pl. Lotników 1, 72-100 Goleniów",
    "lat": 53.56594820000001,
    "lon": 14.830623
  },
  {
    "name": "Urząd Skarbowy w Golubiu-Dobrzyniu[0422]",
    "url": "https://www.e-pity.pl/lista-urzedow-skarbowych/urzad-skarbowy-w-golubiu-dobrzyniu-0422",
    "content": "ul. Dr. Jerzego Gerarda Koppa 1A, 87-400 Golub-Dobrzyń",
    "lat": 53.1090029,
    "lon": 19.0700833
  },
  {
    "name": "Urząd Skarbowy w Gorlicach[1206]",
    "url": "https://www.e-pity.pl/lista-urzedow-skarbowych/urzad-skarbowy-w-gorlicach-1206",
    "content": "ul. Bardiowska 9, 38-300 Gorlice",
    "lat": 49.66475399999999,
    "lon": 21.1618684
  },
  {
    "name": "Urząd Skarbowy w Gorzowie Wielkopolskim[0802]",
    "url": "https://www.e-pity.pl/lista-urzedow-skarbowych/urzad-skarbowy-w-gorzowie-wielkopolskim-0802",
    "content": "ul. Jagiellończyka 10, 66-400 Gorzów Wielkopolski",
    "lat": 52.7390474,
    "lon": 15.2295897
  },
  {
    "name": "Urząd Skarbowy w Gostyninie[1405]",
    "url": "https://www.e-pity.pl/lista-urzedow-skarbowych/urzad-skarbowy-w-gostyninie-1405",
    "content": "ul. Płocka 10, 09-500 Gostynin",
    "lat": 52.4345246,
    "lon": 19.4663381
  },
  {
    "name": "Urząd Skarbowy w Gostyniu[3004]",
    "url": "https://www.e-pity.pl/lista-urzedow-skarbowych/urzad-skarbowy-w-gostyniu-3004",
    "content": "ul. Lipowa 2, 63-800 Gostyń",
    "lat": 51.8816755,
    "lon": 17.0145577
  },
  {
    "name": "Urząd Skarbowy w Grajewie[2006]",
    "url": "https://www.e-pity.pl/lista-urzedow-skarbowych/urzad-skarbowy-w-grajewie-2006",
    "content": "ul. Elewatorska 8, 19-200 Grajewo",
    "lat": 53.634038,
    "lon": 22.4647546
  },
  {
    "name": "Urząd Skarbowy w Grodzisku Mazowieckim[1406]",
    "url": "https://www.e-pity.pl/lista-urzedow-skarbowych/urzad-skarbowy-w-grodzisku-mazowieckim-1406",
    "content": "ul. Daleka 22, 05-825 Grodzisk Mazowiecki",
    "lat": 52.0940334,
    "lon": 20.6182282
  },
  {
    "name": "Urząd Skarbowy w Grodzisku Wielkopolskim[3005]",
    "url": "https://www.e-pity.pl/lista-urzedow-skarbowych/urzad-skarbowy-w-grodzisku-wielkopolskim-3005",
    "content": "ul. Chopina 7, 62-065 Grodzisk Wielkopolski",
    "lat": 52.2260134,
    "lon": 16.3693853
  },
  {
    "name": "Urząd Skarbowy w Grudziądzu[0408]",
    "url": "https://www.e-pity.pl/lista-urzedow-skarbowych/urzad-skarbowy-w-grudziadzu-0408",
    "content": "ul. Droga Łąkowa 23, 86-300 Grudziądz",
    "lat": 53.4813999,
    "lon": 18.7614643
  },
  {
    "name": "Urząd Skarbowy w Gryficach[3206]",
    "url": "https://www.e-pity.pl/lista-urzedow-skarbowych/urzad-skarbowy-w-gryficach-3206",
    "content": "ul. Niepodległości 54A, 72-300 Gryfice",
    "lat": 53.914603,
    "lon": 15.1978994
  },
  {
    "name": "Urząd Skarbowy w Gryfinie[3207]",
    "url": "https://www.e-pity.pl/lista-urzedow-skarbowych/urzad-skarbowy-w-gryfinie-3207",
    "content": "ul. Szczecińska 24, 74-100 Gryfino",
    "lat": 53.2592878,
    "lon": 14.4913488
  },
  {
    "name": "Urząd Skarbowy w Grójcu[1407]",
    "url": "https://www.e-pity.pl/lista-urzedow-skarbowych/urzad-skarbowy-w-grojcu-1407",
    "content": "ul. Ks. Piotra Skargi 35, 05-600 Grójec",
    "lat": 51.8701679,
    "lon": 20.8675288
  },
  {
    "name": "Urząd Skarbowy w Górze[0233]",
    "url": "https://www.e-pity.pl/lista-urzedow-skarbowych/urzad-skarbowy-w-gorze-0233",
    "content": "ul. Poznańska 4, 56-200 Góra",
    "lat": 51.67162,
    "lon": 16.541597
  },
  {
    "name": "Urząd Skarbowy w Głogowie[0205]",
    "url": "https://www.e-pity.pl/lista-urzedow-skarbowych/urzad-skarbowy-w-glogowie-0205",
    "content": "ul. Adama Mickiewicza 53, 67-200 Głogów",
    "lat": 51.6671145,
    "lon": 16.070959
  },
  {
    "name": "Urząd Skarbowy w Głownie[1004]",
    "url": "https://www.e-pity.pl/lista-urzedow-skarbowych/urzad-skarbowy-w-glownie-1004",
    "content": "ul. Ludwika Norblina 2, 95-015 Głowno",
    "lat": 51.9467715,
    "lon": 19.7245958
  },
  {
    "name": "Urząd Skarbowy w Głubczycach[1603]",
    "url": "https://www.e-pity.pl/lista-urzedow-skarbowych/urzad-skarbowy-w-glubczycach-1603",
    "content": "ul. Fabryczna 2, 48-100 Głubczyce",
    "lat": 50.1991715,
    "lon": 17.8256221
  },
  {
    "name": "Urząd Skarbowy w Hajnówce[2015]",
    "url": "https://www.e-pity.pl/lista-urzedow-skarbowych/urzad-skarbowy-w-hajnowce-2015",
    "content": "ul. 3 Maja 34, 17-200 Hajnówka",
    "lat": 52.73826949999999,
    "lon": 23.5865777
  },
  {
    "name": "Urząd Skarbowy w Hrubieszowie[0605]",
    "url": "https://www.e-pity.pl/lista-urzedow-skarbowych/urzad-skarbowy-w-hrubieszowie-0605",
    "content": "ul. 27 Wołyńskiej Dywizji Piechoty AK 11, 22-500 Hrubieszów",
    "lat": 50.80695739999999,
    "lon": 23.8890428
  },
  {
    "name": "Urząd Skarbowy w Inowrocławiu[0409]",
    "url": "https://www.e-pity.pl/lista-urzedow-skarbowych/urzad-skarbowy-w-inowroclawiu-0409",
    "content": "al. Niepodległości 5, 88-100 Inowrocław",
    "lat": 52.789776,
    "lon": 18.2516682
  },
  {
    "name": "Urząd Skarbowy w Iławie[2808]",
    "url": "https://www.e-pity.pl/lista-urzedow-skarbowych/urzad-skarbowy-w-ilawie-2808",
    "content": "ul. Wojska Polskiego26, 14-200 Iława",
    "lat": 53.5959811,
    "lon": 19.5684104
  },
  {
    "name": "Urząd Skarbowy w Janowie Lubelskim[0606]",
    "url": "https://www.e-pity.pl/lista-urzedow-skarbowych/urzad-skarbowy-w-janowie-lubelskim-0606",
    "content": "ul. Wojska Polskiego 32, 23-300 Janów Lubelski",
    "lat": 50.6955045,
    "lon": 22.4298452
  },
  {
    "name": "Urząd Skarbowy w Jarocinie[3006]",
    "url": "https://www.e-pity.pl/lista-urzedow-skarbowych/urzad-skarbowy-w-jarocinie-3006",
    "content": "ul. Tadeusza Kościuszki 21, 63-200 Jarocin",
    "lat": 51.9713486,
    "lon": 17.497834
  },
  {
    "name": "Urząd Skarbowy w Jarosławiu[1804]",
    "url": "https://www.e-pity.pl/lista-urzedow-skarbowych/urzad-skarbowy-w-jaroslawiu-1804",
    "content": "ul. Przemysłowa 2A, 37-500 Jarosław",
    "lat": 50.0110922,
    "lon": 22.6708396
  },
  {
    "name": "Urząd Skarbowy w Jastrzębiu-Zdroju[2414]",
    "url": "https://www.e-pity.pl/lista-urzedow-skarbowych/urzad-skarbowy-w-jastrzebiu-zdroju-2414",
    "content": "ul. 11 Listopada 13, 44-335 Jastrzębie-Zdrój",
    "lat": 49.95043399999999,
    "lon": 18.5766686
  },
  {
    "name": "Urząd Skarbowy w Jaworze[0206]",
    "url": "https://www.e-pity.pl/lista-urzedow-skarbowych/urzad-skarbowy-w-jaworze-0206",
    "content": "ul. Jurija Gagarina 5, 59-400 Jawor",
    "lat": 51.0588528,
    "lon": 16.1852286
  },
  {
    "name": "Urząd Skarbowy w Jaworznie[2415]",
    "url": "https://www.e-pity.pl/lista-urzedow-skarbowych/urzad-skarbowy-w-jaworznie-2415",
    "content": "ul. Grunwaldzka274A, 43-600 Jaworzno",
    "lat": 50.2212312,
    "lon": 19.2495773
  },
  {
    "name": "Urząd Skarbowy w Jaśle[1805]",
    "url": "https://www.e-pity.pl/lista-urzedow-skarbowych/urzad-skarbowy-w-jasle-1805",
    "content": "ul. Stanisława Staszica 3, 38-200 Jasło",
    "lat": 49.7413405,
    "lon": 21.47145
  },
  {
    "name": "Urząd Skarbowy w Jeleniej Górze[0207]",
    "url": "https://www.e-pity.pl/lista-urzedow-skarbowych/urzad-skarbowy-w-jeleniej-gorze-0207",
    "content": "ul. Thebesiusa1, 58-506 Jelenia Góra",
    "lat": 50.9152684,
    "lon": 15.7665212
  },
  {
    "name": "Urząd Skarbowy w Jędrzejowie[2603]",
    "url": "https://www.e-pity.pl/lista-urzedow-skarbowych/urzad-skarbowy-w-jedrzejowie-2603",
    "content": "ul. 11 Listopada 33, 28-300 Jędrzejów",
    "lat": 50.6416256,
    "lon": 20.3001952
  },
  {
    "name": "Urząd Skarbowy w Kamieniu Pomorskim[3208]",
    "url": "https://www.e-pity.pl/lista-urzedow-skarbowych/urzad-skarbowy-w-kamieniu-pomorskim-3208",
    "content": "ul. Mieszka I 5B, 72-400 Kamień Pomorski",
    "lat": 53.9657558,
    "lon": 14.7712502
  },
  {
    "name": "Urząd Skarbowy w Kamiennej Górze[0208]",
    "url": "https://www.e-pity.pl/lista-urzedow-skarbowych/urzad-skarbowy-w-kamiennej-gorze-0208",
    "content": "ul. Papieża Jana Pawła II 18, 58-400 Kamienna Góra",
    "lat": 50.7845041,
    "lon": 16.0251505
  },
  {
    "name": "Urząd Skarbowy w Kartuzach[2210]",
    "url": "https://www.e-pity.pl/lista-urzedow-skarbowych/urzad-skarbowy-w-kartuzach-2210",
    "content": "ul. Kościerska 13, 83-300 Kartuzy",
    "lat": 54.3233985,
    "lon": 18.2037161
  },
  {
    "name": "Urząd Skarbowy w Kazimierzy Wielkiej[2614]",
    "url": "https://www.e-pity.pl/lista-urzedow-skarbowych/urzad-skarbowy-w-kazimierzy-wielkiej-2614",
    "content": "ul. Tadeusza Kościuszki 16, 28-500 Kazimierza Wielka",
    "lat": 50.2667837,
    "lon": 20.4842741
  },
  {
    "name": "Urząd Skarbowy w Kluczborku[1605]",
    "url": "https://www.e-pity.pl/lista-urzedow-skarbowych/urzad-skarbowy-w-kluczborku-1605",
    "content": "ul. Sienkiewicza 22A, 46-200 Kluczbork",
    "lat": 50.9772387,
    "lon": 18.200806
  },
  {
    "name": "Urząd Skarbowy w Kolbuszowej[1806]",
    "url": "https://www.e-pity.pl/lista-urzedow-skarbowych/urzad-skarbowy-w-kolbuszowej-1806",
    "content": "ul. Tadeusza Kościuszki 20, 36-100 Kolbuszowa",
    "lat": 50.2468803,
    "lon": 21.7783033
  },
  {
    "name": "Urząd Skarbowy w Kole[3010]",
    "url": "https://www.e-pity.pl/lista-urzedow-skarbowych/urzad-skarbowy-w-kole-3010",
    "content": "ul. Bolesława Prusa 10, 62-600 Koło",
    "lat": 52.2016437,
    "lon": 18.6394812
  },
  {
    "name": "Urząd Skarbowy w Kolnie[2007]",
    "url": "https://www.e-pity.pl/lista-urzedow-skarbowych/urzad-skarbowy-w-kolnie-2007",
    "content": "ul. Wojska Polskiego 20, 18-500 Kolno",
    "lat": 53.4089679,
    "lon": 21.9318693
  },
  {
    "name": "Urząd Skarbowy w Koninie[3011]",
    "url": "https://www.e-pity.pl/lista-urzedow-skarbowych/urzad-skarbowy-w-koninie-3011",
    "content": "ul. Zakładowa 7A, 62-510 Konin",
    "lat": 52.23791079999999,
    "lon": 18.2366992
  },
  {
    "name": "Urząd Skarbowy w Kozienicach[1408]",
    "url": "https://www.e-pity.pl/lista-urzedow-skarbowych/urzad-skarbowy-w-kozienicach-1408",
    "content": "ul. Parkowa 5, 26-900 Kozienice",
    "lat": 51.5874791,
    "lon": 21.5537329
  },
  {
    "name": "Urząd Skarbowy w Kołobrzegu[3209]",
    "url": "https://www.e-pity.pl/lista-urzedow-skarbowych/urzad-skarbowy-w-kolobrzegu-3209",
    "content": "ul. Armii Krajowej 2, 78-100 Kołobrzeg",
    "lat": 54.178383,
    "lon": 15.57067
  },
  {
    "name": "Urząd Skarbowy w Końskich[2606]",
    "url": "https://www.e-pity.pl/lista-urzedow-skarbowych/urzad-skarbowy-w-konskich-2606",
    "content": "ul. Marszałka Piłsudskiego 156B, 26-200 Końskie",
    "lat": 51.1968979,
    "lon": 20.3924737
  },
  {
    "name": "Urząd Skarbowy w Kościanie[3012]",
    "url": "https://www.e-pity.pl/lista-urzedow-skarbowych/urzad-skarbowy-w-koscianie-3012",
    "content": "ul. Młyńska 5, 64-000 Kościan",
    "lat": 52.0814303,
    "lon": 16.6439794
  },
  {
    "name": "Urząd Skarbowy w Kościerzynie[2211]",
    "url": "https://www.e-pity.pl/lista-urzedow-skarbowych/urzad-skarbowy-w-koscierzynie-2211",
    "content": "ul. Staszica 6, 83-400 Kościerzyna",
    "lat": 54.1196441,
    "lon": 17.9688147
  },
  {
    "name": "Urząd Skarbowy w Krapkowicach[1613]",
    "url": "https://www.e-pity.pl/lista-urzedow-skarbowych/urzad-skarbowy-w-krapkowicach-1613",
    "content": "ul. Opolska 96A, 47-300 Krapkowice",
    "lat": 50.48438820000001,
    "lon": 17.9493771
  },
  {
    "name": "Urząd Skarbowy w Krasnymstawie[0607]",
    "url": "https://www.e-pity.pl/lista-urzedow-skarbowych/urzad-skarbowy-w-krasnymstawie-0607",
    "content": "ul. Rzeczna 5, 22-300 Krasnystaw",
    "lat": 50.981665,
    "lon": 23.1709436
  },
  {
    "name": "Urząd Skarbowy w Kraśniku[0608]",
    "url": "https://www.e-pity.pl/lista-urzedow-skarbowych/urzad-skarbowy-w-krasniku-0608",
    "content": "ul. Tadeusza Kościuszki 5, 23-200 Kraśnik",
    "lat": 50.9212992,
    "lon": 22.2192929
  },
  {
    "name": "Urząd Skarbowy w Krotoszynie[3013]",
    "url": "https://www.e-pity.pl/lista-urzedow-skarbowych/urzad-skarbowy-w-krotoszynie-3013",
    "content": "ul. Polna 32, 63-700 Krotoszyn",
    "lat": 51.6934376,
    "lon": 17.4426739
  },
  {
    "name": "Urząd Skarbowy w Krośnie[1807]",
    "url": "https://www.e-pity.pl/lista-urzedow-skarbowych/urzad-skarbowy-w-krosnie-1807",
    "content": "ul. Składowa 5, 38-400 Krosno",
    "lat": 49.6863835,
    "lon": 21.7499909
  },
  {
    "name": "Urząd Skarbowy w Krośnie Odrzańskim[0803]",
    "url": "https://www.e-pity.pl/lista-urzedow-skarbowych/urzad-skarbowy-w-krosnie-odrzanskim-0803",
    "content": "ul. Słubicka3, 66-600 Krosno Odrzańskie",
    "lat": 52.0550373,
    "lon": 15.0972099
  },
  {
    "name": "Urząd Skarbowy w Kutnie[1005]",
    "url": "https://www.e-pity.pl/lista-urzedow-skarbowych/urzad-skarbowy-w-kutnie-1005",
    "content": "ul. Dr. Antoniego Troczewskiego 12, 99-300 Kutno",
    "lat": 52.230618,
    "lon": 19.364278
  },
  {
    "name": "Urząd Skarbowy w Kwidzynie[2212]",
    "url": "https://www.e-pity.pl/lista-urzedow-skarbowych/urzad-skarbowy-w-kwidzynie-2212",
    "content": "ul. 3 Maja 6, 82-500 Kwidzyn",
    "lat": 53.7360379,
    "lon": 18.9326227
  },
  {
    "name": "Urząd Skarbowy w Kędzierzynie-Koźlu[1604]",
    "url": "https://www.e-pity.pl/lista-urzedow-skarbowych/urzad-skarbowy-w-kedzierzynie-kozlu-1604",
    "content": "ul. Piotra Skargi 19, 47-224 Kędzierzyn-Koźle",
    "lat": 50.3377853,
    "lon": 18.1990751
  },
  {
    "name": "Urząd Skarbowy w Kępnie[3009]",
    "url": "https://www.e-pity.pl/lista-urzedow-skarbowych/urzad-skarbowy-w-kepnie-3009",
    "content": "ul. Rynek 4, 63-600 Kępno",
    "lat": 51.27853899999999,
    "lon": 17.986923
  },
  {
    "name": "Urząd Skarbowy w Kętrzynie[2809]",
    "url": "https://www.e-pity.pl/lista-urzedow-skarbowych/urzad-skarbowy-w-ketrzynie-2809",
    "content": "ul. Powstańców Warszawy13, 11-400 Kętrzyn",
    "lat": 54.07657,
    "lon": 21.37504
  },
  {
    "name": "Urząd Skarbowy w Kłobucku[2418]",
    "url": "https://www.e-pity.pl/lista-urzedow-skarbowych/urzad-skarbowy-w-klobucku-2418",
    "content": "ul. Rynek im. Jana Pawła II 13, 42-100 Kłobuck",
    "lat": 50.9055761,
    "lon": 18.9371187
  },
  {
    "name": "Urząd Skarbowy w Kłodzku[0209]",
    "url": "https://www.e-pity.pl/lista-urzedow-skarbowych/urzad-skarbowy-w-klodzku-0209",
    "content": "ul. Walasiewiczówny 1, 57-300 Kłodzko",
    "lat": 50.4308304,
    "lon": 16.6525701
  },
  {
    "name": "Urząd Skarbowy w Legionowie[1409]",
    "url": "https://www.e-pity.pl/lista-urzedow-skarbowych/urzad-skarbowy-w-legionowie-1409",
    "content": "ul. Marszałka Józefa Piłsudskiego43C, 05-120 Legionowo",
    "lat": 52.4034868,
    "lon": 20.9265451
  },
  {
    "name": "Urząd Skarbowy w Legnicy[0210]",
    "url": "https://www.e-pity.pl/lista-urzedow-skarbowych/urzad-skarbowy-w-legnicy-0210",
    "content": "ul. Wrocławska 37, 59-220 Legnica",
    "lat": 51.2088132,
    "lon": 16.1709694
  },
  {
    "name": "Urząd Skarbowy w Lesku[1808]",
    "url": "https://www.e-pity.pl/lista-urzedow-skarbowych/urzad-skarbowy-w-lesku-1808",
    "content": "ul. Rynek 1, 38-600 Lesko",
    "lat": 49.4684238,
    "lon": 22.3305381
  },
  {
    "name": "Urząd Skarbowy w Lesznie[3014]",
    "url": "https://www.e-pity.pl/lista-urzedow-skarbowych/urzad-skarbowy-w-lesznie-3014",
    "content": "ul. Adama Mickiewicza 7, 64-100 Leszno",
    "lat": 51.8507098,
    "lon": 16.5801241
  },
  {
    "name": "Urząd Skarbowy w Leżajsku[1809]",
    "url": "https://www.e-pity.pl/lista-urzedow-skarbowych/urzad-skarbowy-w-lezajsku-1809",
    "content": "pl. Targowy 3, 37-300 Leżajsk",
    "lat": 50.2517956,
    "lon": 22.4215117
  },
  {
    "name": "Urząd Skarbowy w Limanowej[1214]",
    "url": "https://www.e-pity.pl/lista-urzedow-skarbowych/urzad-skarbowy-w-limanowej-1214",
    "content": "ul. Matki Boskiej Bolesnej 9, 34-600 Limanowa",
    "lat": 49.706194,
    "lon": 20.4239781
  },
  {
    "name": "Urząd Skarbowy w Lipnie[0410]",
    "url": "https://www.e-pity.pl/lista-urzedow-skarbowych/urzad-skarbowy-w-lipnie-0410",
    "content": "ul. Stanisława Staszica 4, 87-600 Lipno",
    "lat": 52.8416942,
    "lon": 19.1777436
  },
  {
    "name": "Urząd Skarbowy w Lipsku[1447]",
    "url": "https://www.e-pity.pl/lista-urzedow-skarbowych/urzad-skarbowy-w-lipsku-1447",
    "content": "ul. Solecka 88, 27-300 Lipsko",
    "lat": 51.15613,
    "lon": 21.664123
  },
  {
    "name": "Urząd Skarbowy w Lubaczowie[1810]",
    "url": "https://www.e-pity.pl/lista-urzedow-skarbowych/urzad-skarbowy-w-lubaczowie-1810",
    "content": "ul. Jana III Sobieskiego 6, 37-600 Lubaczów",
    "lat": 50.150213,
    "lon": 23.131933
  },
  {
    "name": "Urząd Skarbowy w Lubaniu[0211]",
    "url": "https://www.e-pity.pl/lista-urzedow-skarbowych/urzad-skarbowy-w-lubaniu-0211",
    "content": "ul. Stara 1, 59-800 Lubań",
    "lat": 51.1209432,
    "lon": 15.2883379
  },
  {
    "name": "Urząd Skarbowy w Lubartowie[0609]",
    "url": "https://www.e-pity.pl/lista-urzedow-skarbowych/urzad-skarbowy-w-lubartowie-0609",
    "content": "ul. Legionów 55, 21-100 Lubartów",
    "lat": 51.46254649999999,
    "lon": 22.6069362
  },
  {
    "name": "Urząd Skarbowy w Lubinie[0212]",
    "url": "https://www.e-pity.pl/lista-urzedow-skarbowych/urzad-skarbowy-w-lubinie-0212",
    "content": "ul. Marii Skłodowskiej Curie 94, 59-300 Lubin",
    "lat": 51.4121416,
    "lon": 16.1917124
  },
  {
    "name": "Urząd Skarbowy w Lublińcu[2419]",
    "url": "https://www.e-pity.pl/lista-urzedow-skarbowych/urzad-skarbowy-w-lublincu-2419",
    "content": "ul. Paderewskiego 7B, 42-700 Lubliniec",
    "lat": 50.6712451,
    "lon": 18.6875412
  },
  {
    "name": "Urząd Skarbowy w Lwówku Śląskim[0213]",
    "url": "https://www.e-pity.pl/lista-urzedow-skarbowych/urzad-skarbowy-w-lwowku-slaskim-0213",
    "content": "ul. Budowlanych 1, 59-600 Lwówek Śląski",
    "lat": 51.10609669999999,
    "lon": 15.5983703
  },
  {
    "name": "Urząd Skarbowy w Lęborku[2213]",
    "url": "https://www.e-pity.pl/lista-urzedow-skarbowych/urzad-skarbowy-w-leborku-2213",
    "content": "ul. Słupska 23, 84-300 Lębork",
    "lat": 54.5278893,
    "lon": 17.7401369
  },
  {
    "name": "Urząd Skarbowy w Makowie Mazowieckim[1411]",
    "url": "https://www.e-pity.pl/lista-urzedow-skarbowych/urzad-skarbowy-w-makowie-mazowieckim-1411",
    "content": "ul. Kopernika 6C, 06-200 Maków Mazowiecki",
    "lat": 52.86719979999999,
    "lon": 21.0962734
  },
  {
    "name": "Urząd Skarbowy w Malborku[2214]",
    "url": "https://www.e-pity.pl/lista-urzedow-skarbowych/urzad-skarbowy-w-malborku-2214",
    "content": "ul. Mikołaja Kopernika 10, 82-200 Malbork",
    "lat": 54.03456019999999,
    "lon": 19.0298514
  },
  {
    "name": "Urząd Skarbowy w Miechowie[1215]",
    "url": "https://www.e-pity.pl/lista-urzedow-skarbowych/urzad-skarbowy-w-miechowie-1215",
    "content": "ul. Stanisławy Daneckiej 1, 32-200 Miechów",
    "lat": 50.3554109,
    "lon": 20.0218496
  },
  {
    "name": "Urząd Skarbowy w Mielcu[1812]",
    "url": "https://www.e-pity.pl/lista-urzedow-skarbowych/urzad-skarbowy-w-mielcu-1812",
    "content": "ul. Stefana Żeromskiego 13, 39-300 Mielec",
    "lat": 50.288162,
    "lon": 21.419409
  },
  {
    "name": "Urząd Skarbowy w Mikołowie[2420]",
    "url": "https://www.e-pity.pl/lista-urzedow-skarbowych/urzad-skarbowy-w-mikolowie-2420",
    "content": "ul. prof. Maksymiliana Hubera 4, 43-190 Mikołów",
    "lat": 50.16959300000001,
    "lon": 18.8939698
  },
  {
    "name": "Urząd Skarbowy w Miliczu[0214]",
    "url": "https://www.e-pity.pl/lista-urzedow-skarbowych/urzad-skarbowy-w-miliczu-0214",
    "content": "ul. Składowa 2, 56-300 Milicz",
    "lat": 51.5200516,
    "lon": 17.2948377
  },
  {
    "name": "Urząd Skarbowy w Międzychodzie[3015]",
    "url": "https://www.e-pity.pl/lista-urzedow-skarbowych/urzad-skarbowy-w-miedzychodzie-3015",
    "content": "ul. Marszałka Piłsudskiego 2, 64-400 Międzychód",
    "lat": 52.5975485,
    "lon": 15.893886
  },
  {
    "name": "Urząd Skarbowy w Międzyrzeczu[0804]",
    "url": "https://www.e-pity.pl/lista-urzedow-skarbowych/urzad-skarbowy-w-miedzyrzeczu-0804",
    "content": "ul. Rynek 3, 66-300 Międzyrzecz",
    "lat": 52.44472020000001,
    "lon": 15.5764225
  },
  {
    "name": "Urząd Skarbowy w Mińsku Mazowieckim[1412]",
    "url": "https://www.e-pity.pl/lista-urzedow-skarbowych/urzad-skarbowy-w-minsku-mazowieckim-1412",
    "content": "ul. Szczecińska 2, 05-300 Mińsk Mazowiecki",
    "lat": 52.18358250000001,
    "lon": 21.5629172
  },
  {
    "name": "Urząd Skarbowy w Mogilnie[0411]",
    "url": "https://www.e-pity.pl/lista-urzedow-skarbowych/urzad-skarbowy-w-mogilnie-0411",
    "content": "ul. 900-lecia 20, 88-300 Mogilno",
    "lat": 52.6596935,
    "lon": 17.9580583
  },
  {
    "name": "Urząd Skarbowy w Mońkach[2009]",
    "url": "https://www.e-pity.pl/lista-urzedow-skarbowych/urzad-skarbowy-w-monkach-2009",
    "content": "ul. Ełcka 41A, 19-100 Mońki",
    "lat": 53.40735369999999,
    "lon": 22.7868034
  },
  {
    "name": "Urząd Skarbowy w Myszkowie[2422]",
    "url": "https://www.e-pity.pl/lista-urzedow-skarbowych/urzad-skarbowy-w-myszkowie-2422",
    "content": "ul. Pułaskiego 68, 42-300 Myszków",
    "lat": 50.5331325,
    "lon": 19.2931218
  },
  {
    "name": "Urząd Skarbowy w Mysłowicach[2421]",
    "url": "https://www.e-pity.pl/lista-urzedow-skarbowych/urzad-skarbowy-w-myslowicach-2421",
    "content": "ul. Adama Mickiewicza 4, 41-400 Mysłowice",
    "lat": 50.238691,
    "lon": 19.13925
  },
  {
    "name": "Urząd Skarbowy w Myślenicach[1216]",
    "url": "https://www.e-pity.pl/lista-urzedow-skarbowych/urzad-skarbowy-w-myslenicach-1216",
    "content": "ul. Hipolita Cegielskiego 2, 32-400 Myślenice",
    "lat": 49.8376488,
    "lon": 19.9541123
  },
  {
    "name": "Urząd Skarbowy w Myśliborzu[3212]",
    "url": "https://www.e-pity.pl/lista-urzedow-skarbowych/urzad-skarbowy-w-mysliborzu-3212",
    "content": "ul. Pileckiego18, 74-300 Myślibórz",
    "lat": 52.926828,
    "lon": 14.8724007
  },
  {
    "name": "Urząd Skarbowy w Mławie[1413]",
    "url": "https://www.e-pity.pl/lista-urzedow-skarbowych/urzad-skarbowy-w-mlawie-1413",
    "content": "ul. Gabriela Narutowicza 19/7, 06-500 Mława",
    "lat": 53.1131775,
    "lon": 20.3889688
  },
  {
    "name": "Urząd Skarbowy w Nakle nad Notecią[0412]",
    "url": "https://www.e-pity.pl/lista-urzedow-skarbowych/urzad-skarbowy-w-nakle-nad-notecia-0412",
    "content": "ul. Sądowa 8, 89-100 Nakło nad Notecią",
    "lat": 53.1367163,
    "lon": 17.5929611
  },
  {
    "name": "Urząd Skarbowy w Namysłowie[1606]",
    "url": "https://www.e-pity.pl/lista-urzedow-skarbowych/urzad-skarbowy-w-namyslowie-1606",
    "content": "ul. Marii Skłodowskiej-Curie12, 46-100 Namysłów",
    "lat": 51.0710035,
    "lon": 17.7048721
  },
  {
    "name": "Urząd Skarbowy w Nidzicy[2810]",
    "url": "https://www.e-pity.pl/lista-urzedow-skarbowych/urzad-skarbowy-w-nidzicy-2810",
    "content": "ul. Stefana Żeromskiego11, 13-100 Nidzica",
    "lat": 53.360814,
    "lon": 20.4274873
  },
  {
    "name": "Urząd Skarbowy w Nisku[1823]",
    "url": "https://www.e-pity.pl/lista-urzedow-skarbowych/urzad-skarbowy-w-nisku-1823",
    "content": "ul. 3 Maja 32B, 37-400 Nisko",
    "lat": 50.5184663,
    "lon": 22.1405854
  },
  {
    "name": "Urząd Skarbowy w Nowej Rudzie[0215]",
    "url": "https://www.e-pity.pl/lista-urzedow-skarbowych/urzad-skarbowy-w-nowej-rudzie-0215",
    "content": "ul. Kolejowa 23, 57-400 Nowa Ruda",
    "lat": 50.5775677,
    "lon": 16.4990706
  },
  {
    "name": "Urząd Skarbowy w Nowej Soli[0805]",
    "url": "https://www.e-pity.pl/lista-urzedow-skarbowych/urzad-skarbowy-w-nowej-soli-0805",
    "content": "ul. Stanisława Staszica 1, 67-100 Nowa Sól",
    "lat": 51.8097662,
    "lon": 15.7056812
  },
  {
    "name": "Urząd Skarbowy w Nowym Dworze Mazowieckim[1414]",
    "url": "https://www.e-pity.pl/lista-urzedow-skarbowych/urzad-skarbowy-w-nowym-dworze-mazowieckim-1414",
    "content": "ul. Legionów 7, 05-100 Nowy Dwór Mazowiecki",
    "lat": 52.4279932,
    "lon": 20.7109645
  },
  {
    "name": "Urząd Skarbowy w Nowym Mieście Lubawskim[2811]",
    "url": "https://www.e-pity.pl/lista-urzedow-skarbowych/urzad-skarbowy-w-nowym-miescie-lubawskim-2811",
    "content": "ul. Działyńskich3, 13-300 Nowe Miasto Lubawskie",
    "lat": 53.42232,
    "lon": 19.59222
  },
  {
    "name": "Urząd Skarbowy w Nowym Sączu[1217]",
    "url": "https://www.e-pity.pl/lista-urzedow-skarbowych/urzad-skarbowy-w-nowym-saczu-1217",
    "content": "ul. Władysława Barbackiego 10, 33-300 Nowy Sącz",
    "lat": 49.61705389999999,
    "lon": 20.690623
  },
  {
    "name": "Urząd Skarbowy w Nowym Targu[1218]",
    "url": "https://www.e-pity.pl/lista-urzedow-skarbowych/urzad-skarbowy-w-nowym-targu-1218",
    "content": "ul. Parkowa 13, 34-400 Nowy Targ",
    "lat": 49.4828431,
    "lon": 20.0243115
  },
  {
    "name": "Urząd Skarbowy w Nowym Tomyślu[3016]",
    "url": "https://www.e-pity.pl/lista-urzedow-skarbowych/urzad-skarbowy-w-nowym-tomyslu-3016",
    "content": "ul. Kolejowa 38, 64-300 Nowy Tomyśl",
    "lat": 52.3016782,
    "lon": 16.1272384
  },
  {
    "name": "Urząd Skarbowy w Nysie[1607]",
    "url": "https://www.e-pity.pl/lista-urzedow-skarbowych/urzad-skarbowy-w-nysie-1607",
    "content": "ul. Bolesława Krzywoustego 23, 48-300 Nysa",
    "lat": 50.474827,
    "lon": 17.329089
  },
  {
    "name": "Urząd Skarbowy w Obornikach[3038]",
    "url": "https://www.e-pity.pl/lista-urzedow-skarbowych/urzad-skarbowy-w-obornikach-3038",
    "content": "ul. Rynek 4, 64-600 Oborniki",
    "lat": 52.64566379999999,
    "lon": 16.8107166
  },
  {
    "name": "Urząd Skarbowy w Olecku[2812]",
    "url": "https://www.e-pity.pl/lista-urzedow-skarbowych/urzad-skarbowy-w-olecku-2812",
    "content": "ul. Wojska Polskiego 7, 19-400 Olecko",
    "lat": 54.036814,
    "lon": 22.496004
  },
  {
    "name": "Urząd Skarbowy w Oleśnicy[0216]",
    "url": "https://www.e-pity.pl/lista-urzedow-skarbowych/urzad-skarbowy-w-olesnicy-0216",
    "content": "ul. Lwowska34-38, 56-400 Oleśnica",
    "lat": 51.2134346,
    "lon": 17.3898504
  },
  {
    "name": "Urząd Skarbowy w Oleśnie[1608]",
    "url": "https://www.e-pity.pl/lista-urzedow-skarbowych/urzad-skarbowy-w-olesnie-1608",
    "content": "ul. Jana Pieloka 21, 46-300 Olesno",
    "lat": 50.8804745,
    "lon": 18.4195294
  },
  {
    "name": "Urząd Skarbowy w Olkuszu[1219]",
    "url": "https://www.e-pity.pl/lista-urzedow-skarbowych/urzad-skarbowy-w-olkuszu-1219",
    "content": "ul. Budowlanych 2, 32-300 Olkusz",
    "lat": 50.2799598,
    "lon": 19.5531419
  },
  {
    "name": "Urząd Skarbowy w Olsztynie[2813]",
    "url": "https://www.e-pity.pl/lista-urzedow-skarbowych/urzad-skarbowy-w-olsztynie-2813",
    "content": "al. Marszałka J. Piłsudskiego59, 10-950 Olsztyn",
    "lat": 53.7830503,
    "lon": 20.4693721
  },
  {
    "name": "Urząd Skarbowy w Opatowie[2607]",
    "url": "https://www.e-pity.pl/lista-urzedow-skarbowych/urzad-skarbowy-w-opatowie-2607",
    "content": "ul. Jana Kilińskiego 9, 27-500 Opatów",
    "lat": 50.8022266,
    "lon": 21.4250291
  },
  {
    "name": "Urząd Skarbowy w Opocznie[1015]",
    "url": "https://www.e-pity.pl/lista-urzedow-skarbowych/urzad-skarbowy-w-opocznie-1015",
    "content": "ul. Piotrkowska 14, 26-300 Opoczno",
    "lat": 51.3763789,
    "lon": 20.2835086
  },
  {
    "name": "Urząd Skarbowy w Opolu Lubelskim[0614]",
    "url": "https://www.e-pity.pl/lista-urzedow-skarbowych/urzad-skarbowy-w-opolu-lubelskim-0614",
    "content": "ul. Józefa Piłsudskiego 12, 24-300 Opole Lubelskie",
    "lat": 51.147672,
    "lon": 21.970968
  },
  {
    "name": "Urząd Skarbowy w Ostrowcu Świętokrzyskim[2608]",
    "url": "https://www.e-pity.pl/lista-urzedow-skarbowych/urzad-skarbowy-w-ostrowcu-swietokrzyskim-2608",
    "content": "ul. Polna 11, 27-400 Ostrowiec Świętokrzyski",
    "lat": 50.9442548,
    "lon": 21.3898287
  },
  {
    "name": "Urząd Skarbowy w Ostrowi Mazowieckiej[1416]",
    "url": "https://www.e-pity.pl/lista-urzedow-skarbowych/urzad-skarbowy-w-ostrowi-mazowieckiej-1416",
    "content": "ul. Stanisława Duboisa 1, 07-300 Ostrów Mazowiecka",
    "lat": 52.8024546,
    "lon": 21.8959716
  },
  {
    "name": "Urząd Skarbowy w Ostrowie Wielkopolskim[3017]",
    "url": "https://www.e-pity.pl/lista-urzedow-skarbowych/urzad-skarbowy-w-ostrowie-wielkopolskim-3017",
    "content": "ul. Chłapowskiego 45, 63-400 Ostrów Wielkopolski",
    "lat": 51.6469056,
    "lon": 17.7824269
  },
  {
    "name": "Urząd Skarbowy w Ostrołęce[1415]",
    "url": "https://www.e-pity.pl/lista-urzedow-skarbowych/urzad-skarbowy-w-ostrolece-1415",
    "content": "ul. Przechodnia 6, 07-400 Ostrołęka",
    "lat": 53.0823139,
    "lon": 21.570661
  },
  {
    "name": "Urząd Skarbowy w Ostrzeszowie[3018]",
    "url": "https://www.e-pity.pl/lista-urzedow-skarbowych/urzad-skarbowy-w-ostrzeszowie-3018",
    "content": "ul. Władysława Grabskiego 1, 63-500 Ostrzeszów",
    "lat": 51.4161472,
    "lon": 17.9333343
  },
  {
    "name": "Urząd Skarbowy w Ostródzie[2814]",
    "url": "https://www.e-pity.pl/lista-urzedow-skarbowych/urzad-skarbowy-w-ostrodzie-2814",
    "content": "ul. Olsztyńska 5B, 14-100 Ostróda",
    "lat": 53.7057091,
    "lon": 19.9614986
  },
  {
    "name": "Urząd Skarbowy w Otwocku[1417]",
    "url": "https://www.e-pity.pl/lista-urzedow-skarbowych/urzad-skarbowy-w-otwocku-1417",
    "content": "ul. Jana Matejki 4, 05-400 Otwock",
    "lat": 52.0985832,
    "lon": 21.267634
  },
  {
    "name": "Urząd Skarbowy w Oławie[0217]",
    "url": "https://www.e-pity.pl/lista-urzedow-skarbowych/urzad-skarbowy-w-olawie-0217",
    "content": "ul. Lwowska 1, 55-200 Oława",
    "lat": 50.9488033,
    "lon": 17.2873309
  },
  {
    "name": "Urząd Skarbowy w Oświęcimiu[1220]",
    "url": "https://www.e-pity.pl/lista-urzedow-skarbowych/urzad-skarbowy-w-oswiecimiu-1220",
    "content": "ul. Plebańska 2, 32-600 Oświęcim",
    "lat": 50.0387892,
    "lon": 19.2225328
  },
  {
    "name": "Urząd Skarbowy w Pabianicach[1016]",
    "url": "https://www.e-pity.pl/lista-urzedow-skarbowych/urzad-skarbowy-w-pabianicach-1016",
    "content": "ul. Zamkowa 26, 95-200 Pabianice",
    "lat": 51.6642474,
    "lon": 19.3505791
  },
  {
    "name": "Urząd Skarbowy w Pajęcznie[1029]",
    "url": "https://www.e-pity.pl/lista-urzedow-skarbowych/urzad-skarbowy-w-pajecznie-1029",
    "content": "ul. 1 Maja 9, 98-330 Pajęczno",
    "lat": 51.14579670000001,
    "lon": 18.9996933
  },
  {
    "name": "Urząd Skarbowy w Parczewie[0615]",
    "url": "https://www.e-pity.pl/lista-urzedow-skarbowych/urzad-skarbowy-w-parczewie-0615",
    "content": "ul. Żabia 2a, 21-200 Parczew",
    "lat": 51.6405797,
    "lon": 22.8989585
  },
  {
    "name": "Urząd Skarbowy w Piasecznie[1418]",
    "url": "https://www.e-pity.pl/lista-urzedow-skarbowych/urzad-skarbowy-w-piasecznie-1418",
    "content": "ul. Energetyczna 5, 05-500 Piaseczno",
    "lat": 52.0891756,
    "lon": 21.0207249
  },
  {
    "name": "Urząd Skarbowy w Piekarach Śląskich[2423]",
    "url": "https://www.e-pity.pl/lista-urzedow-skarbowych/urzad-skarbowy-w-piekarach-slaskich-2423",
    "content": "ul. Bytomska 92, 41-940 Piekary Śląskie",
    "lat": 50.3767416,
    "lon": 18.9440623
  },
  {
    "name": "Urząd Skarbowy w Pile[3019]",
    "url": "https://www.e-pity.pl/lista-urzedow-skarbowych/urzad-skarbowy-w-pile-3019",
    "content": "ul. Kossaka 106, 64-920 Piła",
    "lat": 53.1627374,
    "lon": 16.7718788
  },
  {
    "name": "Urząd Skarbowy w Piotrkowie Trybunalskim[1017]",
    "url": "https://www.e-pity.pl/lista-urzedow-skarbowych/urzad-skarbowy-w-piotrkowie-trybunalskim-1017",
    "content": "ul. Wronia 65, 97-300 Piotrków Trybunalski",
    "lat": 51.3932818,
    "lon": 19.6643192
  },
  {
    "name": "Urząd Skarbowy w Piszu[2815]",
    "url": "https://www.e-pity.pl/lista-urzedow-skarbowych/urzad-skarbowy-w-piszu-2815",
    "content": "ul. Okopowa 2, 12-200 Pisz",
    "lat": 53.6280462,
    "lon": 21.8039529
  },
  {
    "name": "Urząd Skarbowy w Pińczowie[2609]",
    "url": "https://www.e-pity.pl/lista-urzedow-skarbowych/urzad-skarbowy-w-pinczowie-2609",
    "content": "ul. Grodziskowa 1, 28-400 Pińczów",
    "lat": 50.5204932,
    "lon": 20.5286687
  },
  {
    "name": "Urząd Skarbowy w Pleszewie[3039]",
    "url": "https://www.e-pity.pl/lista-urzedow-skarbowych/urzad-skarbowy-w-pleszewie-3039",
    "content": "ul. Bogusza 6, 63-300 Pleszew",
    "lat": 51.8946262,
    "lon": 17.7809273
  },
  {
    "name": "Urząd Skarbowy w Poddębicach[1018]",
    "url": "https://www.e-pity.pl/lista-urzedow-skarbowych/urzad-skarbowy-w-poddebicach-1018",
    "content": "ul. Gabriela Narutowicza 12, 99-200 Poddębice",
    "lat": 51.891691,
    "lon": 18.954196
  },
  {
    "name": "Urząd Skarbowy w Polkowicach[0234]",
    "url": "https://www.e-pity.pl/lista-urzedow-skarbowych/urzad-skarbowy-w-polkowicach-0234",
    "content": "ul. Zachodnia 10, 59-100 Polkowice",
    "lat": 51.5042182,
    "lon": 16.0661948
  },
  {
    "name": "Urząd Skarbowy w Proszowicach[1221]",
    "url": "https://www.e-pity.pl/lista-urzedow-skarbowych/urzad-skarbowy-w-proszowicach-1221",
    "content": "ul. Mikołaja Reja 1, 32-100 Proszowice",
    "lat": 50.1916249,
    "lon": 20.2939749
  },
  {
    "name": "Urząd Skarbowy w Prudniku[1611]",
    "url": "https://www.e-pity.pl/lista-urzedow-skarbowych/urzad-skarbowy-w-prudniku-1611",
    "content": "ul. Mikołaja Kopernika 1A, 48-200 Prudnik",
    "lat": 50.3206779,
    "lon": 17.5742264
  },
  {
    "name": "Urząd Skarbowy w Pruszczu Gdańskim[2221]",
    "url": "https://www.e-pity.pl/lista-urzedow-skarbowych/urzad-skarbowy-w-pruszczu-gdanskim-2221",
    "content": "ul. Ignacego Łukasiewicza 2, 83-000 Pruszcz Gdański",
    "lat": 54.24883999999999,
    "lon": 18.637435
  },
  {
    "name": "Urząd Skarbowy w Pruszkowie[1421]",
    "url": "https://www.e-pity.pl/lista-urzedow-skarbowych/urzad-skarbowy-w-pruszkowie-1421",
    "content": "ul. Stanisława Staszica 1, 05-800 Pruszków",
    "lat": 52.1637455,
    "lon": 20.7879325
  },
  {
    "name": "Urząd Skarbowy w Przasnyszu[1422]",
    "url": "https://www.e-pity.pl/lista-urzedow-skarbowych/urzad-skarbowy-w-przasnyszu-1422",
    "content": "ul. Świerkowa 3, 06-300 Przasnysz",
    "lat": 53.0274925,
    "lon": 20.8923309
  },
  {
    "name": "Urząd Skarbowy w Przemyślu[1813]",
    "url": "https://www.e-pity.pl/lista-urzedow-skarbowych/urzad-skarbowy-w-przemyslu-1813",
    "content": "ul. Lwowska 9A, 37-700 Przemyśl",
    "lat": 49.7832982,
    "lon": 22.8010598
  },
  {
    "name": "Urząd Skarbowy w Przeworsku[1814]",
    "url": "https://www.e-pity.pl/lista-urzedow-skarbowych/urzad-skarbowy-w-przeworsku-1814",
    "content": "ul. Tysiąclecia 1, 37-200 Przeworsk",
    "lat": 50.0622988,
    "lon": 22.4914707
  },
  {
    "name": "Urząd Skarbowy w Przysusze[1448]",
    "url": "https://www.e-pity.pl/lista-urzedow-skarbowych/urzad-skarbowy-w-przysusze-1448",
    "content": "ul. Szkolna 7, 26-400 Przysucha",
    "lat": 51.361306,
    "lon": 20.633415
  },
  {
    "name": "Urząd Skarbowy w Pszczynie[2424]",
    "url": "https://www.e-pity.pl/lista-urzedow-skarbowych/urzad-skarbowy-w-pszczynie-2424",
    "content": "ul. 3 Maja 4, 43-200 Pszczyna",
    "lat": 49.97706059999999,
    "lon": 18.9507712
  },
  {
    "name": "Urząd Skarbowy w Pucku[2215]",
    "url": "https://www.e-pity.pl/lista-urzedow-skarbowych/urzad-skarbowy-w-pucku-2215",
    "content": "ul. Kmdr. E. Szystowskiego 18, 84-100 Puck",
    "lat": 54.7240252,
    "lon": 18.4016031
  },
  {
    "name": "Urząd Skarbowy w Puławach[0616]",
    "url": "https://www.e-pity.pl/lista-urzedow-skarbowych/urzad-skarbowy-w-pulawach-0616",
    "content": "ul. Władysława Grabskiego 4, 24-100 Puławy",
    "lat": 51.41539969999999,
    "lon": 21.9714448
  },
  {
    "name": "Urząd Skarbowy w Pułtusku[1423]",
    "url": "https://www.e-pity.pl/lista-urzedow-skarbowych/urzad-skarbowy-w-pultusku-1423",
    "content": "ul. Żwirki i Wigury 7, 06-100 Pułtusk",
    "lat": 52.7064551,
    "lon": 21.0842492
  },
  {
    "name": "Urząd Skarbowy w Pyrzycach[3213]",
    "url": "https://www.e-pity.pl/lista-urzedow-skarbowych/urzad-skarbowy-w-pyrzycach-3213",
    "content": "ul. 1 Maja 16, 74-200 Pyrzyce",
    "lat": 53.1430628,
    "lon": 14.8917691
  },
  {
    "name": "Urząd Skarbowy w Płocku[1419]",
    "url": "https://www.e-pity.pl/lista-urzedow-skarbowych/urzad-skarbowy-w-plocku-1419",
    "content": "ul. 1 Maja 10, 09-402 Płock",
    "lat": 52.5471699,
    "lon": 19.697929
  },
  {
    "name": "Urząd Skarbowy w Płońsku[1420]",
    "url": "https://www.e-pity.pl/lista-urzedow-skarbowych/urzad-skarbowy-w-plonsku-1420",
    "content": "ul. Spółdzielcza 2, 09-100 Płońsk",
    "lat": 52.6217068,
    "lon": 20.3604263
  },
  {
    "name": "Urząd Skarbowy w Raciborzu[2425]",
    "url": "https://www.e-pity.pl/lista-urzedow-skarbowych/urzad-skarbowy-w-raciborzu-2425",
    "content": "ul. Michała Drzymały32, 47-400 Racibórz",
    "lat": 50.088592,
    "lon": 18.220676
  },
  {
    "name": "Urząd Skarbowy w Radomsku[1019]",
    "url": "https://www.e-pity.pl/lista-urzedow-skarbowych/urzad-skarbowy-w-radomsku-1019",
    "content": "ul. Adama Mickiewicza 4, 97-500 Radomsko",
    "lat": 51.0698613,
    "lon": 19.4468178
  },
  {
    "name": "Urząd Skarbowy w Radziejowie[0413]",
    "url": "https://www.e-pity.pl/lista-urzedow-skarbowych/urzad-skarbowy-w-radziejowie-0413",
    "content": "ul. Rolnicza 6, 88-200 Radziejów",
    "lat": 52.6276016,
    "lon": 18.538114
  },
  {
    "name": "Urząd Skarbowy w Radzyniu Podlaskim[0617]",
    "url": "https://www.e-pity.pl/lista-urzedow-skarbowych/urzad-skarbowy-w-radzyniu-podlaskim-0617",
    "content": "ul. Lubelska1/2, 21-300 Radzyń Podlaski",
    "lat": 51.78320249999999,
    "lon": 22.6218532
  },
  {
    "name": "Urząd Skarbowy w Rawiczu[3027]",
    "url": "https://www.e-pity.pl/lista-urzedow-skarbowych/urzad-skarbowy-w-rawiczu-3027",
    "content": "ul. Stanisława Staszica 4, 63-900 Rawicz",
    "lat": 51.61122930000001,
    "lon": 16.8620931
  },
  {
    "name": "Urząd Skarbowy w Rawie Mazowieckiej[1020]",
    "url": "https://www.e-pity.pl/lista-urzedow-skarbowych/urzad-skarbowy-w-rawie-mazowieckiej-1020",
    "content": "ul. Juliusza Słowackiego 4, 96-200 Rawa Mazowiecka",
    "lat": 51.7649385,
    "lon": 20.2498062
  },
  {
    "name": "Urząd Skarbowy w Ropczycach[1815]",
    "url": "https://www.e-pity.pl/lista-urzedow-skarbowych/urzad-skarbowy-w-ropczycach-1815",
    "content": "ul. Św. Barbary 12, 39-100 Ropczyce",
    "lat": 50.0543687,
    "lon": 21.6081794
  },
  {
    "name": "Urząd Skarbowy w Rudzie Śląskiej[2426]",
    "url": "https://www.e-pity.pl/lista-urzedow-skarbowych/urzad-skarbowy-w-rudzie-slaskiej-2426",
    "content": "ul. Kokotek 6, 41-700 Ruda Śląska",
    "lat": 50.3035133,
    "lon": 18.8695407
  },
  {
    "name": "Urząd Skarbowy w Rybniku[2427]",
    "url": "https://www.e-pity.pl/lista-urzedow-skarbowych/urzad-skarbowy-w-rybniku-2427",
    "content": "pl. Armii Krajowej 3, 44-200 Rybnik",
    "lat": 50.088974,
    "lon": 18.5429989
  },
  {
    "name": "Urząd Skarbowy w Rykach[0622]",
    "url": "https://www.e-pity.pl/lista-urzedow-skarbowych/urzad-skarbowy-w-rykach-0622",
    "content": "ul. Leona Wyczółkowskiego 10A, 08-500 Ryki",
    "lat": 51.624443,
    "lon": 21.927235
  },
  {
    "name": "Urząd Skarbowy w Rypinie[0414]",
    "url": "https://www.e-pity.pl/lista-urzedow-skarbowych/urzad-skarbowy-w-rypinie-0414",
    "content": "ul. Dojazdowa 10, 87-500 Rypin",
    "lat": 53.0618771,
    "lon": 19.4296079
  },
  {
    "name": "Urząd Skarbowy w Sandomierzu[2610]",
    "url": "https://www.e-pity.pl/lista-urzedow-skarbowych/urzad-skarbowy-w-sandomierzu-2610",
    "content": "ul. Żydowska 1, 27-600 Sandomierz",
    "lat": 50.680535,
    "lon": 21.7486919
  },
  {
    "name": "Urząd Skarbowy w Sanoku[1817]",
    "url": "https://www.e-pity.pl/lista-urzedow-skarbowych/urzad-skarbowy-w-sanoku-1817",
    "content": "ul. Henryka Sienkiewicza 1, 38-500 Sanok",
    "lat": 49.5598858,
    "lon": 22.2003107
  },
  {
    "name": "Urząd Skarbowy w Siedlcach[1426]",
    "url": "https://www.e-pity.pl/lista-urzedow-skarbowych/urzad-skarbowy-w-siedlcach-1426",
    "content": "ul. Bp. Ignacego Świrskiego45, 08-110 Siedlce",
    "lat": 52.1693601,
    "lon": 22.2763063
  },
  {
    "name": "Urząd Skarbowy w Siemianowicach Śląskich[2428]",
    "url": "https://www.e-pity.pl/lista-urzedow-skarbowych/urzad-skarbowy-w-siemianowicach-slaskich-2428",
    "content": "ul. Śląska84, 41-100 Siemianowice Śląskie",
    "lat": 50.3053184,
    "lon": 19.0287203
  },
  {
    "name": "Urząd Skarbowy w Siemiatyczach[2010]",
    "url": "https://www.e-pity.pl/lista-urzedow-skarbowych/urzad-skarbowy-w-siemiatyczach-2010",
    "content": "ul. Pałacowa 18, 17-300 Siemiatycze",
    "lat": 52.42442370000001,
    "lon": 22.8626377
  },
  {
    "name": "Urząd Skarbowy w Sieradzu[1021]",
    "url": "https://www.e-pity.pl/lista-urzedow-skarbowych/urzad-skarbowy-w-sieradzu-1021",
    "content": "ul. Spółdzielcza 3, 98-200 Sieradz",
    "lat": 51.5843042,
    "lon": 18.7233697
  },
  {
    "name": "Urząd Skarbowy w Sierpcu[1427]",
    "url": "https://www.e-pity.pl/lista-urzedow-skarbowych/urzad-skarbowy-w-sierpcu-1427",
    "content": "ul. Piastowska 48, 09-200 Sierpc",
    "lat": 52.849255,
    "lon": 19.6618063
  },
  {
    "name": "Urząd Skarbowy w Skarżysku-Kamiennej[2611]",
    "url": "https://www.e-pity.pl/lista-urzedow-skarbowych/urzad-skarbowy-w-skarzysku-kamiennej-2611",
    "content": "ul. 1 Maja 56, 26-110 Skarżysko-Kamienna",
    "lat": 51.115603,
    "lon": 20.88741
  },
  {
    "name": "Urząd Skarbowy w Skierniewicach[1022]",
    "url": "https://www.e-pity.pl/lista-urzedow-skarbowych/urzad-skarbowy-w-skierniewicach-1022",
    "content": "ul. Czerwona 22, 96-100 Skierniewice",
    "lat": 51.9757907,
    "lon": 20.1671775
  },
  {
    "name": "Urząd Skarbowy w Sochaczewie[1428]",
    "url": "https://www.e-pity.pl/lista-urzedow-skarbowych/urzad-skarbowy-w-sochaczewie-1428",
    "content": "ul. Władysława Grabskiego 4, 96-500 Sochaczew",
    "lat": 52.2271144,
    "lon": 20.2422082
  },
  {
    "name": "Urząd Skarbowy w Sokołowie Podlaskim[1429]",
    "url": "https://www.e-pity.pl/lista-urzedow-skarbowych/urzad-skarbowy-w-sokolowie-podlaskim-1429",
    "content": "ul. Węgrowska 5, 08-300 Sokołów Podlaski",
    "lat": 52.4069647,
    "lon": 22.2163776
  },
  {
    "name": "Urząd Skarbowy w Sokółce[2011]",
    "url": "https://www.e-pity.pl/lista-urzedow-skarbowych/urzad-skarbowy-w-sokolce-2011",
    "content": "ul. Białostocka 47, 16-100 Sokółka",
    "lat": 53.4033077,
    "lon": 23.4917754
  },
  {
    "name": "Urząd Skarbowy w Sopocie[2217]",
    "url": "https://www.e-pity.pl/lista-urzedow-skarbowych/urzad-skarbowy-w-sopocie-2217",
    "content": "ul. 23 Marca 9/11, 81-808 Sopot",
    "lat": 54.4454362,
    "lon": 18.5566126
  },
  {
    "name": "Urząd Skarbowy w Sosnowcu[2429]",
    "url": "https://www.e-pity.pl/lista-urzedow-skarbowych/urzad-skarbowy-w-sosnowcu-2429",
    "content": "ul. 3 Maja 20, 41-200 Sosnowiec",
    "lat": 50.2792989,
    "lon": 19.1288458
  },
  {
    "name": "Urząd Skarbowy w Stalowej Woli[1818]",
    "url": "https://www.e-pity.pl/lista-urzedow-skarbowych/urzad-skarbowy-w-stalowej-woli-1818",
    "content": "ul. Metalowców 6, 37-450 Stalowa Wola",
    "lat": 50.5624181,
    "lon": 22.0561413
  },
  {
    "name": "Urząd Skarbowy w Starachowicach[2612]",
    "url": "https://www.e-pity.pl/lista-urzedow-skarbowych/urzad-skarbowy-w-starachowicach-2612",
    "content": "ul. Składowa33, 27-200 Starachowice",
    "lat": 51.05059079999999,
    "lon": 21.0550217
  },
  {
    "name": "Urząd Skarbowy w Stargardzie[3214]",
    "url": "https://www.e-pity.pl/lista-urzedow-skarbowych/urzad-skarbowy-w-stargardzie-3214",
    "content": "ul. Towarowa 15, 73-110 Stargard",
    "lat": 53.3419742,
    "lon": 15.0273756
  },
  {
    "name": "Urząd Skarbowy w Starogardzie Gdańskim[2218]",
    "url": "https://www.e-pity.pl/lista-urzedow-skarbowych/urzad-skarbowy-w-starogardzie-gdanskim-2218",
    "content": "ul. Lubichowska 4, 83-200 Starogard Gdański",
    "lat": 53.9660178,
    "lon": 18.5269257
  },
  {
    "name": "Urząd Skarbowy w Staszowie[2613]",
    "url": "https://www.e-pity.pl/lista-urzedow-skarbowych/urzad-skarbowy-w-staszowie-2613",
    "content": "ul. Oględowska12, 28-200 Staszów",
    "lat": 50.5629974,
    "lon": 21.1659309
  },
  {
    "name": "Urząd Skarbowy w Strzelcach Opolskich[1612]",
    "url": "https://www.e-pity.pl/lista-urzedow-skarbowych/urzad-skarbowy-w-strzelcach-opolskich-1612",
    "content": "ul. Opolska 13, 47-100 Strzelce Opolskie",
    "lat": 50.5167788,
    "lon": 18.2869751
  },
  {
    "name": "Urząd Skarbowy w Strzelinie[0218]",
    "url": "https://www.e-pity.pl/lista-urzedow-skarbowych/urzad-skarbowy-w-strzelinie-0218",
    "content": "ul. Bolka I Świdnickiego 14, 57-100 Strzelin",
    "lat": 50.7833902,
    "lon": 17.0629465
  },
  {
    "name": "Urząd Skarbowy w Strzyżowie[1819]",
    "url": "https://www.e-pity.pl/lista-urzedow-skarbowych/urzad-skarbowy-w-strzyzowie-1819",
    "content": "ul. Daszyńskiego 6, 38-100 Strzyżów",
    "lat": 49.8697362,
    "lon": 21.7875936
  },
  {
    "name": "Urząd Skarbowy w Suchej Beskidzkiej[1222]",
    "url": "https://www.e-pity.pl/lista-urzedow-skarbowych/urzad-skarbowy-w-suchej-beskidzkiej-1222",
    "content": "ul. Adama Mickiewicza 36, 34-200 Sucha Beskidzka",
    "lat": 49.7418746,
    "lon": 19.5917361
  },
  {
    "name": "Urząd Skarbowy w Sulęcinie[0813]",
    "url": "https://www.e-pity.pl/lista-urzedow-skarbowych/urzad-skarbowy-w-sulecinie-0813",
    "content": "ul. Daszyńskiego 47, 69-200 Sulęcin",
    "lat": 52.453987,
    "lon": 15.1122916
  },
  {
    "name": "Urząd Skarbowy w Suwałkach[2012]",
    "url": "https://www.e-pity.pl/lista-urzedow-skarbowych/urzad-skarbowy-w-suwalkach-2012",
    "content": "ul. 1 Maja 2A, 16-400 Suwałki",
    "lat": 54.103797,
    "lon": 22.9347089
  },
  {
    "name": "Urząd Skarbowy w Szamotułach[3029]",
    "url": "https://www.e-pity.pl/lista-urzedow-skarbowych/urzad-skarbowy-w-szamotulach-3029",
    "content": "ul. Bolesława Chrobrego 17A, 64-500 Szamotuły",
    "lat": 52.5967107,
    "lon": 16.5926547
  },
  {
    "name": "Urząd Skarbowy w Szczecinku[3218]",
    "url": "https://www.e-pity.pl/lista-urzedow-skarbowych/urzad-skarbowy-w-szczecinku-3218",
    "content": "ul. Adama Mickiewicza 13-14, 78-400 Szczecinek",
    "lat": 53.7027107,
    "lon": 16.6945552
  },
  {
    "name": "Urząd Skarbowy w Szczytnie[2816]",
    "url": "https://www.e-pity.pl/lista-urzedow-skarbowych/urzad-skarbowy-w-szczytnie-2816",
    "content": "ul. Warszawska 5, 12-100 Szczytno",
    "lat": 53.5618349,
    "lon": 20.9935762
  },
  {
    "name": "Urząd Skarbowy w Szydłowcu[1430]",
    "url": "https://www.e-pity.pl/lista-urzedow-skarbowych/urzad-skarbowy-w-szydlowcu-1430",
    "content": "ul. Widok 6, 26-500 Szydłowiec",
    "lat": 51.2267993,
    "lon": 20.8598896
  },
  {
    "name": "Urząd Skarbowy w Sępólnie Krajeńskim[0423]",
    "url": "https://www.e-pity.pl/lista-urzedow-skarbowych/urzad-skarbowy-w-sepolnie-krajenskim-0423",
    "content": "ul. Tadeusza Kościuszki 22, 89-400 Sępólno Krajeńskie",
    "lat": 53.4547596,
    "lon": 17.5343396
  },
  {
    "name": "Urząd Skarbowy w Słubicach[0806]",
    "url": "https://www.e-pity.pl/lista-urzedow-skarbowych/urzad-skarbowy-w-slubicach-0806",
    "content": "ul. Wojska Polskiego 155, 69-100 Słubice",
    "lat": 52.3550901,
    "lon": 14.5618832
  },
  {
    "name": "Urząd Skarbowy w Słupcy[3028]",
    "url": "https://www.e-pity.pl/lista-urzedow-skarbowych/urzad-skarbowy-w-slupcy-3028",
    "content": "ul. Wspólna 1, 62-400 Słupca",
    "lat": 52.2818378,
    "lon": 17.8908681
  },
  {
    "name": "Urząd Skarbowy w Słupsku[2216]",
    "url": "https://www.e-pity.pl/lista-urzedow-skarbowych/urzad-skarbowy-w-slupsku-2216",
    "content": "ul. Szczecińska 59, 76-200 Słupsk",
    "lat": 54.4569627,
    "lon": 16.9922703
  },
  {
    "name": "Urząd Skarbowy w Tarnobrzegu[1820]",
    "url": "https://www.e-pity.pl/lista-urzedow-skarbowych/urzad-skarbowy-w-tarnobrzegu-1820",
    "content": "ul. Stanisława Wyspiańskiego 12, 39-400 Tarnobrzeg",
    "lat": 50.5690438,
    "lon": 21.6742765
  },
  {
    "name": "Urząd Skarbowy w Tarnowskich Górach[2430]",
    "url": "https://www.e-pity.pl/lista-urzedow-skarbowych/urzad-skarbowy-w-tarnowskich-gorach-2430",
    "content": "ul. Opolska 23, 42-600 Tarnowskie Góry",
    "lat": 50.4472167,
    "lon": 18.8493969
  },
  {
    "name": "Urząd Skarbowy w Tczewie[2219]",
    "url": "https://www.e-pity.pl/lista-urzedow-skarbowych/urzad-skarbowy-w-tczewie-2219",
    "content": "ul. Gdańska 33, 83-110 Tczew",
    "lat": 54.0995617,
    "lon": 18.7826211
  },
  {
    "name": "Urząd Skarbowy w Tomaszowie Lubelskim[0618]",
    "url": "https://www.e-pity.pl/lista-urzedow-skarbowych/urzad-skarbowy-w-tomaszowie-lubelskim-0618",
    "content": "ul. Rolnicza 17, 22-600 Tomaszów Lubelski",
    "lat": 50.435553,
    "lon": 23.4271021
  },
  {
    "name": "Urząd Skarbowy w Tomaszowie Mazowieckim[1023]",
    "url": "https://www.e-pity.pl/lista-urzedow-skarbowych/urzad-skarbowy-w-tomaszowie-mazowieckim-1023",
    "content": "ul. Józefa Montwiłła Mireckiego 37, 97-200 Tomaszów Mazowiecki",
    "lat": 51.5300378,
    "lon": 20.0254093
  },
  {
    "name": "Urząd Skarbowy w Trzebnicy[0221]",
    "url": "https://www.e-pity.pl/lista-urzedow-skarbowych/urzad-skarbowy-w-trzebnicy-0221",
    "content": "ul. Prusicka 2, 55-100 Trzebnica",
    "lat": 51.3112684,
    "lon": 17.0632184
  },
  {
    "name": "Urząd Skarbowy w Tucholi[0418]",
    "url": "https://www.e-pity.pl/lista-urzedow-skarbowych/urzad-skarbowy-w-tucholi-0418",
    "content": "pl. Zamkowy 4, 89-500 Tuchola",
    "lat": 53.58871079999999,
    "lon": 17.8552983
  },
  {
    "name": "Urząd Skarbowy w Turku[3032]",
    "url": "https://www.e-pity.pl/lista-urzedow-skarbowych/urzad-skarbowy-w-turku-3032",
    "content": "ul. Konińska 1, 62-700 Turek",
    "lat": 52.014001,
    "lon": 18.481549
  },
  {
    "name": "Urząd Skarbowy w Tychach[2431]",
    "url": "https://www.e-pity.pl/lista-urzedow-skarbowych/urzad-skarbowy-w-tychach-2431",
    "content": "ul. Niepodległości 60, 43-100 Tychy",
    "lat": 50.1167787,
    "lon": 18.9899964
  },
  {
    "name": "Urząd Skarbowy w Ustrzykach Dolnych[1821]",
    "url": "https://www.e-pity.pl/lista-urzedow-skarbowych/urzad-skarbowy-w-ustrzykach-dolnych-1821",
    "content": "ul. Mikołaja Kopernika 1, 38-700 Ustrzyki Dolne",
    "lat": 49.430507,
    "lon": 22.590434
  },
  {
    "name": "Urząd Skarbowy w Wadowicach[1225]",
    "url": "https://www.e-pity.pl/lista-urzedow-skarbowych/urzad-skarbowy-w-wadowicach-1225",
    "content": "ul. Legionów 22, 34-100 Wadowice",
    "lat": 49.8828204,
    "lon": 19.5022774
  },
  {
    "name": "Urząd Skarbowy w Wałbrzychu[0222]",
    "url": "https://www.e-pity.pl/lista-urzedow-skarbowych/urzad-skarbowy-w-walbrzychu-0222",
    "content": "ul. Uczniowska 21, 58-306 Wałbrzych",
    "lat": 50.8180555,
    "lon": 16.3122072
  },
  {
    "name": "Urząd Skarbowy w Wałczu[3220]",
    "url": "https://www.e-pity.pl/lista-urzedow-skarbowych/urzad-skarbowy-w-walczu-3220",
    "content": "ul. Tadeusza Kościuszki 4, 78-600 Wałcz",
    "lat": 53.2740812,
    "lon": 16.4732722
  },
  {
    "name": "Urząd Skarbowy w Wejherowie[2220]",
    "url": "https://www.e-pity.pl/lista-urzedow-skarbowych/urzad-skarbowy-w-wejherowie-2220",
    "content": "ul. Jana III Sobieskiego 346, 84-200 Wejherowo",
    "lat": 54.60371499999999,
    "lon": 18.218782
  },
  {
    "name": "Urząd Skarbowy w Wieliczce[1226]",
    "url": "https://www.e-pity.pl/lista-urzedow-skarbowych/urzad-skarbowy-w-wieliczce-1226",
    "content": "ul. Zamkowa 2, 32-020 Wieliczka",
    "lat": 49.9829132,
    "lon": 20.0595852
  },
  {
    "name": "Urząd Skarbowy w Wieluniu[1024]",
    "url": "https://www.e-pity.pl/lista-urzedow-skarbowych/urzad-skarbowy-w-wieluniu-1024",
    "content": "ul. Krakowskie Przedmieście 34, 98-300 Wieluń",
    "lat": 51.220434,
    "lon": 18.5748856
  },
  {
    "name": "Urząd Skarbowy w Wieruszowie[1027]",
    "url": "https://www.e-pity.pl/lista-urzedow-skarbowych/urzad-skarbowy-w-wieruszowie-1027",
    "content": "ul. Rynek 12/13, 98-400 Wieruszów",
    "lat": 51.2947354,
    "lon": 18.1507473
  },
  {
    "name": "Urząd Skarbowy w Wodzisławiu Śląskim[2432]",
    "url": "https://www.e-pity.pl/lista-urzedow-skarbowych/urzad-skarbowy-w-wodzislawiu-slaskim-2432",
    "content": "ul. Bartosza Głowackiego 4, 44-300 Wodzisław Śląski",
    "lat": 50.0029614,
    "lon": 18.4655924
  },
  {
    "name": "Urząd Skarbowy w Wolsztynie[3034]",
    "url": "https://www.e-pity.pl/lista-urzedow-skarbowych/urzad-skarbowy-w-wolsztynie-3034",
    "content": "ul. Dworcowa 15, 64-200 Wolsztyn",
    "lat": 52.107886,
    "lon": 16.115176
  },
  {
    "name": "Urząd Skarbowy w Wołominie[1442]",
    "url": "https://www.e-pity.pl/lista-urzedow-skarbowych/urzad-skarbowy-w-wolominie-1442",
    "content": "ul. Przejazd 2, 05-200 Wołomin",
    "lat": 52.3429683,
    "lon": 21.2360431
  },
  {
    "name": "Urząd Skarbowy w Wołowie[0223]",
    "url": "https://www.e-pity.pl/lista-urzedow-skarbowych/urzad-skarbowy-w-wolowie-0223",
    "content": "ul. Tadeusza Kościuszki 17, 56-100 Wołów",
    "lat": 51.3255844,
    "lon": 16.6287493
  },
  {
    "name": "Urząd Skarbowy w Wysokiem Mazowieckiem[2013]",
    "url": "https://www.e-pity.pl/lista-urzedow-skarbowych/urzad-skarbowy-w-wysokiem-mazowieckiem-2013",
    "content": "ul. Ludowa 21, 18-200 Wysokie Mazowieckie",
    "lat": 52.9142199,
    "lon": 22.5092248
  },
  {
    "name": "Urząd Skarbowy w Wyszkowie[1443]",
    "url": "https://www.e-pity.pl/lista-urzedow-skarbowych/urzad-skarbowy-w-wyszkowie-1443",
    "content": "ul. Gen. Józefa Sowińskiego 82, 07-200 Wyszków",
    "lat": 52.5923125,
    "lon": 21.4525905
  },
  {
    "name": "Urząd Skarbowy w Wąbrzeźnie[0419]",
    "url": "https://www.e-pity.pl/lista-urzedow-skarbowych/urzad-skarbowy-w-wabrzeznie-0419",
    "content": "ul. Macieja Rataja 2, 87-200 Wąbrzeźno",
    "lat": 53.2809951,
    "lon": 18.9570616
  },
  {
    "name": "Urząd Skarbowy w Wągrowcu[3033]",
    "url": "https://www.e-pity.pl/lista-urzedow-skarbowych/urzad-skarbowy-w-wagrowcu-3033",
    "content": "ul. Tadeusza Kościuszki 19A, 62-100 Wągrowiec",
    "lat": 52.81168109999999,
    "lon": 17.1996015
  },
  {
    "name": "Urząd Skarbowy w Węgrowie[1441]",
    "url": "https://www.e-pity.pl/lista-urzedow-skarbowych/urzad-skarbowy-w-wegrowie-1441",
    "content": "ul. Kościelna 4, 07-100 Węgrów",
    "lat": 52.3984957,
    "lon": 22.0190957
  },
  {
    "name": "Urząd Skarbowy w Zabrzu[2433]",
    "url": "https://www.e-pity.pl/lista-urzedow-skarbowych/urzad-skarbowy-w-zabrzu-2433",
    "content": "ul. Bytomska 2, 41-800 Zabrze",
    "lat": 50.3097848,
    "lon": 18.7904409
  },
  {
    "name": "Urząd Skarbowy w Zakopanem[1227]",
    "url": "https://www.e-pity.pl/lista-urzedow-skarbowych/urzad-skarbowy-w-zakopanem-1227",
    "content": "ul. Szymony 14, 34-500 Zakopane",
    "lat": 49.30449429999999,
    "lon": 19.9633935
  },
  {
    "name": "Urząd Skarbowy w Zambrowie[2014]",
    "url": "https://www.e-pity.pl/lista-urzedow-skarbowych/urzad-skarbowy-w-zambrowie-2014",
    "content": "ul. Jantarowa 16, 18-300 Zambrów",
    "lat": 52.97583040000001,
    "lon": 22.2439497
  },
  {
    "name": "Urząd Skarbowy w Zamościu[0620]",
    "url": "https://www.e-pity.pl/lista-urzedow-skarbowych/urzad-skarbowy-w-zamosciu-0620",
    "content": "ul. Jana Kilińskiego 82, 22-400 Zamość",
    "lat": 50.7255891,
    "lon": 23.2735282
  },
  {
    "name": "Urząd Skarbowy w Zawierciu[2434]",
    "url": "https://www.e-pity.pl/lista-urzedow-skarbowych/urzad-skarbowy-w-zawierciu-2434",
    "content": "ul. Leśna 8, 42-400 Zawiercie",
    "lat": 50.4854939,
    "lon": 19.4328747
  },
  {
    "name": "Urząd Skarbowy w Zduńskiej Woli[1025]",
    "url": "https://www.e-pity.pl/lista-urzedow-skarbowych/urzad-skarbowy-w-zdunskiej-woli-1025",
    "content": "ul. Zielona 15, 98-220 Zduńska Wola",
    "lat": 51.6028183,
    "lon": 18.9440159
  },
  {
    "name": "Urząd Skarbowy w Zgierzu[1026]",
    "url": "https://www.e-pity.pl/lista-urzedow-skarbowych/urzad-skarbowy-w-zgierzu-1026",
    "content": "ul. ks. Jerzego Popiełuszki 8, 95-100 Zgierz",
    "lat": 51.8538967,
    "lon": 19.408253
  },
  {
    "name": "Urząd Skarbowy w Zgorzelcu[0231]",
    "url": "https://www.e-pity.pl/lista-urzedow-skarbowych/urzad-skarbowy-w-zgorzelcu-0231",
    "content": "ul. Bohaterów II Armii Wojska Polskiego 8B, 59-900 Zgorzelec",
    "lat": 51.1472318,
    "lon": 15.0105577
  },
  {
    "name": "Urząd Skarbowy w Zwoleniu[1444]",
    "url": "https://www.e-pity.pl/lista-urzedow-skarbowych/urzad-skarbowy-w-zwoleniu-1444",
    "content": "ul. Wojska Polskiego 39, 26-700 Zwoleń",
    "lat": 51.3573695,
    "lon": 21.57863
  },
  {
    "name": "Urząd Skarbowy w Ząbkowicach Śląskich[0230]",
    "url": "https://www.e-pity.pl/lista-urzedow-skarbowych/urzad-skarbowy-w-zabkowicach-slaskich-0230",
    "content": "ul. Ludwika Waryńskiego 2A, 57-200 Ząbkowice Śląskie",
    "lat": 50.5973106,
    "lon": 16.8144299
  },
  {
    "name": "Urząd Skarbowy w Złotoryi[0232]",
    "url": "https://www.e-pity.pl/lista-urzedow-skarbowych/urzad-skarbowy-w-zlotoryi-0232",
    "content": "ul. Rynek 42, 59-500 Złotoryja",
    "lat": 51.123902,
    "lon": 15.915877
  },
  {
    "name": "Urząd Skarbowy w Złotowie[3036]",
    "url": "https://www.e-pity.pl/lista-urzedow-skarbowych/urzad-skarbowy-w-zlotowie-3036",
    "content": "al. Piasta 25, 77-400 Złotów",
    "lat": 53.3625598,
    "lon": 17.0470419
  },
  {
    "name": "Urząd Skarbowy w Łasku[1006]",
    "url": "https://www.e-pity.pl/lista-urzedow-skarbowych/urzad-skarbowy-w-lasku-1006",
    "content": "ul. 9 Maja 31, 98-100 Łask",
    "lat": 51.5897689,
    "lon": 19.1400985
  },
  {
    "name": "Urząd Skarbowy w Łańcucie[1811]",
    "url": "https://www.e-pity.pl/lista-urzedow-skarbowych/urzad-skarbowy-w-lancucie-1811",
    "content": "ul. Józefa Piłsudskiego 11, 37-100 Łańcut",
    "lat": 50.0656449,
    "lon": 22.2280083
  },
  {
    "name": "Urząd Skarbowy w Łomży[2008]",
    "url": "https://www.e-pity.pl/lista-urzedow-skarbowych/urzad-skarbowy-w-lomzy-2008",
    "content": "ul. Polowa 47, 18-400 Łomża",
    "lat": 53.1782323,
    "lon": 22.0723389
  },
  {
    "name": "Urząd Skarbowy w Łosicach[1410]",
    "url": "https://www.e-pity.pl/lista-urzedow-skarbowych/urzad-skarbowy-w-losicach-1410",
    "content": "ul. 11 Listopada 1, 08-200 Łosice",
    "lat": 52.2123009,
    "lon": 22.714624
  },
  {
    "name": "Urząd Skarbowy w Łowiczu[1007]",
    "url": "https://www.e-pity.pl/lista-urzedow-skarbowych/urzad-skarbowy-w-lowiczu-1007",
    "content": "ul. Józefa Chełmońskiego 2, 99-400 Łowicz",
    "lat": 52.1151695,
    "lon": 19.9506079
  },
  {
    "name": "Urząd Skarbowy w Łukowie[0613]",
    "url": "https://www.e-pity.pl/lista-urzedow-skarbowych/urzad-skarbowy-w-lukowie-0613",
    "content": "ul. Międzyrzecka 72A, 21-400 Łuków",
    "lat": 51.932546,
    "lon": 22.3867
  },
  {
    "name": "Urząd Skarbowy w Łęcznej[0621]",
    "url": "https://www.e-pity.pl/lista-urzedow-skarbowych/urzad-skarbowy-w-lecznej-0621",
    "content": "ul. Jana Pawła II 95, 21-010 Łęczna",
    "lat": 51.2986213,
    "lon": 22.8868103
  },
  {
    "name": "Urząd Skarbowy w Łęczycy[1028]",
    "url": "https://www.e-pity.pl/lista-urzedow-skarbowych/urzad-skarbowy-w-leczycy-1028",
    "content": "al. Jana Pawła II 17, 99-100 Łęczyca",
    "lat": 52.0603485,
    "lon": 19.1977896
  },
  {
    "name": "Urząd Skarbowy w Śremie[3030]",
    "url": "https://www.e-pity.pl/lista-urzedow-skarbowych/urzad-skarbowy-w-sremie-3030",
    "content": "ul. Wojska Polskiego 12, 63-100 Śrem",
    "lat": 52.0835739,
    "lon": 17.0161775
  },
  {
    "name": "Urząd Skarbowy w Środzie Wielkopolskiej[3031]",
    "url": "https://www.e-pity.pl/lista-urzedow-skarbowych/urzad-skarbowy-w-srodzie-wielkopolskiej-3031",
    "content": "ul. Harcerska 2, 63-000 Środa Wielkopolska",
    "lat": 52.2255412,
    "lon": 17.2848576
  },
  {
    "name": "Urząd Skarbowy w Środzie Śląskiej[0219]",
    "url": "https://www.e-pity.pl/lista-urzedow-skarbowych/urzad-skarbowy-w-srodzie-slaskiej-0219",
    "content": "ul. Oławska 5A, 55-300 Środa Śląska",
    "lat": 51.1617261,
    "lon": 16.6039704
  },
  {
    "name": "Urząd Skarbowy w Świdnicy[0220]",
    "url": "https://www.e-pity.pl/lista-urzedow-skarbowych/urzad-skarbowy-w-swidnicy-0220",
    "content": "ul. Marii Skłodowskiej Curie 1-31-3, 58-100 Świdnica",
    "lat": 50.8429678,
    "lon": 16.4650439
  },
  {
    "name": "Urząd Skarbowy w Świebodzinie[0807]",
    "url": "https://www.e-pity.pl/lista-urzedow-skarbowych/urzad-skarbowy-w-swiebodzinie-0807",
    "content": "ul. Jana III Sobieskiego 6, 66-200 Świebodzin",
    "lat": 52.2428015,
    "lon": 15.5205961
  },
  {
    "name": "Urząd Skarbowy w Świeciu[0415]",
    "url": "https://www.e-pity.pl/lista-urzedow-skarbowych/urzad-skarbowy-w-swieciu-0415",
    "content": "ul. 10 lutego16, 86-100 Świecie",
    "lat": 53.4093843,
    "lon": 18.4473864
  },
  {
    "name": "Urząd Skarbowy w Świnoujściu[3219]",
    "url": "https://www.e-pity.pl/lista-urzedow-skarbowych/urzad-skarbowy-w-swinoujsciu-3219",
    "content": "ul. Kazimierza Pułaskiego 7, 72-600 Świnoujście",
    "lat": 53.9145481,
    "lon": 14.2387466
  },
  {
    "name": "Urząd Skarbowy w Żaganiu[0810]",
    "url": "https://www.e-pity.pl/lista-urzedow-skarbowych/urzad-skarbowy-w-zaganiu-0810",
    "content": "ul. Skarbowa26, 68-100 Żagań",
    "lat": 51.6178445,
    "lon": 15.3248325
  },
  {
    "name": "Urząd Skarbowy w Żarach[0811]",
    "url": "https://www.e-pity.pl/lista-urzedow-skarbowych/urzad-skarbowy-w-zarach-0811",
    "content": "ul. Osadników Wojskowych 3-4, 68-200 Żary",
    "lat": 51.6387268,
    "lon": 15.1447614
  },
  {
    "name": "Urząd Skarbowy w Żninie[0421]",
    "url": "https://www.e-pity.pl/lista-urzedow-skarbowych/urzad-skarbowy-w-zninie-0421",
    "content": "ul. Klemensa Janickiego 18, 88-400 Żnin",
    "lat": 52.8501111,
    "lon": 17.7437887
  },
  {
    "name": "Urząd Skarbowy w Żorach[2435]",
    "url": "https://www.e-pity.pl/lista-urzedow-skarbowych/urzad-skarbowy-w-zorach-2435",
    "content": "ul. Wodzisławska 1, 44-240 Żory",
    "lat": 50.04297630000001,
    "lon": 18.6880915
  },
  {
    "name": "Urząd Skarbowy w Żurominie[1445]",
    "url": "https://www.e-pity.pl/lista-urzedow-skarbowych/urzad-skarbowy-w-zurominie-1445",
    "content": "pl. Józefa Piłsudskiego 4, 09-300 Żuromin",
    "lat": 53.06691199999999,
    "lon": 19.90933
  },
  {
    "name": "Urząd Skarbowy w Żyrardowie[1446]",
    "url": "https://www.e-pity.pl/lista-urzedow-skarbowych/urzad-skarbowy-w-zyrardowie-1446",
    "content": "ul. 1 Maja 49A, 96-300 Żyrardów",
    "lat": 52.0575801,
    "lon": 20.4346786
  },